,nome,estado,latitude,longitude
0,Abadia de Goiás,52,-16.7573,-49.4412
1,Abadia dos Dourados,31,-18.4831,-47.3916
2,Abadiânia,52,-16.197,-48.7057
3,Abaeté,31,-19.1551,-45.4444
4,Abaetetuba,15,-1.72183,-48.8788
5,Abaiara,23,-7.34588,-39.0416
6,Abaíra,29,-13.2488,-41.6619
7,Abaré,29,-8.72073,-39.1162
8,Abatiá,41,-23.3049,-50.3133
9,Abdon Batista,42,-27.6126,-51.0233
10,Abel Figueiredo,15,-4.95333,-48.3933
11,Abelardo Luz,42,-26.5716,-52.3229
12,Abre Campo,31,-20.2996,-42.4743
13,Abreu e Lima,26,-7.90072,-34.8984
14,Abreulândia,17,-9.62101,-49.1518
15,Acaiaca,31,-20.359,-43.1439
16,Açailândia,21,-4.94714,-47.5004
17,Acajutiba,29,-11.6575,-38.0197
18,Acará,15,-1.95383,-48.1985
19,Acarape,23,-4.22083,-38.7055
20,Acaraú,23,-2.88769,-40.1183
21,Acari,24,-6.4282,-36.6347
22,Acauã,22,-8.21954,-41.0831
23,Aceguá,43,-31.8665,-54.1615
24,Acopiara,23,-6.08911,-39.448
25,Acorizal,51,-15.194,-56.3632
26,Acrelândia,12,-9.82581,-66.8972
27,Acreúna,52,-17.396,-50.3749
28,Açu,24,-5.58362,-36.914
29,Açucena,31,-19.0671,-42.5419
30,Adamantina,35,-21.682,-51.0737
31,Adelândia,52,-16.4127,-50.1657
32,Adolfo,35,-21.2325,-49.6451
33,Adrianópolis,41,-24.6606,-48.9922
34,Adustina,29,-10.5437,-38.1113
35,Afogados da Ingazeira,26,-7.74312,-37.631
36,Afonso Bezerra,24,-5.49229,-36.5075
37,Afonso Cláudio,32,-20.0778,-41.1261
38,Afonso Cunha,21,-4.13631,-43.3275
39,Afrânio,26,-8.51136,-41.0095
40,Afuá,15,-0.154874,-50.3861
41,Agrestina,26,-8.45966,-35.9447
42,Agricolândia,22,-5.79676,-42.6664
43,Agrolândia,42,-27.4087,-49.822
44,Agronômica,42,-27.2662,-49.708
45,Água Azul do Norte,15,-6.79053,-50.4791
46,Água Boa,31,-17.9914,-42.3806
47,Água Boa,51,-14.051,-52.1601
48,Água Branca,22,-5.88856,-42.637
49,Água Branca,25,-7.51144,-37.6357
50,Água Branca,27,-9.262,-37.938
51,Água Clara,50,-20.4452,-52.879
52,Água Comprida,31,-20.0576,-48.1069
53,Água Doce,42,-26.9985,-51.5528
54,Água Doce do Maranhão,21,-2.84048,-42.1189
55,Água Doce do Norte,32,-18.5482,-40.9854
56,Água Fria,29,-11.8618,-38.7639
57,Água Fria de Goiás,52,-14.9778,-47.7823
58,Água Limpa,52,-18.0771,-48.7603
59,Água Nova,24,-6.20351,-38.2941
60,Água Preta,26,-8.70609,-35.5263
61,Água Santa,43,-28.1672,-52.031
62,Aguaí,35,-22.0572,-46.9735
63,Aguanil,31,-20.9439,-45.3915
64,Águas Belas,26,-9.11125,-37.1226
65,Águas da Prata,35,-21.9319,-46.7176
66,Águas de Chapecó,42,-27.0754,-52.9808
67,Águas de Lindóia,35,-22.4733,-46.6314
68,Águas de Santa Bárbara,35,-22.8812,-49.2421
69,Águas de São Pedro,35,-22.5977,-47.8734
70,Águas Formosas,31,-17.0802,-40.9384
71,Águas Frias,42,-26.8794,-52.8568
72,Águas Lindas de Goiás,52,-15.7617,-48.2816
73,Águas Mornas,42,-27.6963,-48.8243
74,Águas Vermelhas,31,-15.7431,-41.4571
75,Agudo,43,-29.6447,-53.2515
76,Agudos,35,-22.4694,-48.9863
77,Agudos do Sul,41,-25.9899,-49.3343
78,Águia Branca,32,-18.9846,-40.7437
79,Aguiar,25,-7.0918,-38.1681
80,Aguiarnópolis,17,-6.55409,-47.4702
81,Aimorés,31,-19.5007,-41.0746
82,Aiquara,29,-14.1269,-39.8937
83,Aiuaba,23,-6.57122,-40.1178
84,Aiuruoca,31,-21.9736,-44.6042
85,Ajuricaba,43,-28.2342,-53.7757
86,Alagoa,31,-22.171,-44.6413
87,Alagoa Grande,25,-7.03943,-35.6206
88,Alagoa Nova,25,-7.05377,-35.7591
89,Alagoinha,25,-6.94657,-35.5332
90,Alagoinha,26,-8.4665,-36.7788
91,Alagoinha do Piauí,22,-7.00039,-40.9282
92,Alagoinhas,29,-12.1335,-38.4208
93,Alambari,35,-23.5503,-47.898
94,Albertina,31,-22.2018,-46.6139
95,Alcântara,21,-2.39574,-44.4062
96,Alcântaras,23,-3.58537,-40.5479
97,Alcantil,25,-7.73668,-36.0511
98,Alcinópolis,50,-18.3255,-53.7042
99,Alcobaça,29,-17.5195,-39.2036
100,Aldeias Altas,21,-4.62621,-43.4689
101,Alecrim,43,-27.6579,-54.7649
102,Alegre,32,-20.758,-41.5382
103,Alegrete,43,-29.7902,-55.7949
104,Alegrete do Piauí,22,-7.24196,-40.8566
105,Alegria,43,-27.8345,-54.0557
106,Além Paraíba,31,-21.8797,-42.7176
107,Alenquer,15,-1.94623,-54.7384
108,Alexandria,24,-6.40533,-38.0142
109,Alexânia,52,-16.0834,-48.5076
110,Alfenas,31,-21.4256,-45.9477
111,Alfredo Chaves,32,-20.6396,-40.7543
112,Alfredo Marcondes,35,-21.9527,-51.414
113,Alfredo Vasconcelos,31,-21.1535,-43.7718
114,Alfredo Wagner,42,-27.7001,-49.3273
115,Algodão de Jandaíra,25,-6.89292,-36.0129
116,Alhandra,25,-7.42977,-34.9057
117,Aliança,26,-7.60398,-35.2227
118,Aliança do Tocantins,17,-11.3056,-48.9361
119,Almadina,29,-14.7089,-39.6415
120,Almas,17,-11.5706,-47.1792
121,Almeirim,15,-1.52904,-52.5788
122,Almenara,31,-16.1785,-40.6942
123,Almino Afonso,24,-6.1475,-37.7636
124,Almirante Tamandaré,41,-25.3188,-49.3037
125,Almirante Tamandaré do Sul,43,-28.1149,-52.9142
126,Aloândia,52,-17.7292,-49.4769
127,Alpercata,31,-18.974,-41.97
128,Alpestre,43,-27.2502,-53.0341
129,Alpinópolis,31,-20.8631,-46.3878
130,Alta Floresta,51,-9.86674,-56.0867
131,Alta Floresta D'Oeste,11,-11.9283,-61.9953
132,Altair,35,-20.5242,-49.0571
133,Altamira,15,-3.20407,-52.21
134,Altamira do Maranhão,21,-4.16598,-45.4706
135,Altamira do Paraná,41,-24.7983,-52.7128
136,Altaneira,23,-6.99837,-39.7356
137,Alterosa,31,-21.2488,-46.1387
138,Altinho,26,-8.48482,-36.0644
139,Altinópolis,35,-21.0214,-47.3712
140,Alto Alegre,35,-21.5811,-50.168
141,Alto Alegre,14,2.98858,-61.3072
142,Alto Alegre,43,-28.7769,-52.9893
143,Alto Alegre do Maranhão,21,-4.213,-44.446
144,Alto Alegre do Pindaré,21,-3.66689,-45.8421
145,Alto Alegre dos Parecis,11,-12.132,-61.835
146,Alto Araguaia,51,-17.3153,-53.2181
147,Alto Bela Vista,42,-27.4333,-51.9044
148,Alto Boa Vista,51,-11.6732,-51.3883
149,Alto Caparaó,31,-20.431,-41.8738
150,Alto do Rodrigues,24,-5.28186,-36.75
151,Alto Feliz,43,-29.3919,-51.3123
152,Alto Garças,51,-16.9462,-53.5272
153,Alto Horizonte,52,-14.1978,-49.3378
154,Alto Jequitibá,31,-20.4208,-41.967
155,Alto Longá,22,-5.25634,-42.2096
156,Alto Paraguai,51,-14.5137,-56.4776
157,Alto Paraíso,41,-26.1146,-52.7469
158,Alto Paraíso,11,-9.71429,-63.3188
159,Alto Paraíso de Goiás,52,-14.1305,-47.51
160,Alto Paraná,41,-23.1312,-52.3189
161,Alto Parnaíba,21,-9.10273,-45.9303
162,Alto Piquiri,41,-24.0224,-53.44
163,Alto Rio Doce,31,-21.0281,-43.4067
164,Alto Rio Novo,32,-19.0618,-41.0209
165,Alto Santo,23,-5.50894,-38.2743
166,Alto Taquari,51,-17.8241,-53.2792
167,Altônia,41,-23.8759,-53.8958
168,Altos,22,-5.03888,-42.4612
169,Alumínio,35,-23.5306,-47.2546
170,Alvarães,13,-3.22727,-64.8007
171,Alvarenga,31,-19.4174,-41.7317
172,Álvares Florence,35,-20.3203,-49.9141
173,Álvares Machado,35,-22.0764,-51.4722
174,Álvaro de Carvalho,35,-22.0841,-49.719
175,Alvinlândia,35,-22.4435,-49.7623
176,Alvinópolis,31,-20.1098,-43.0535
177,Alvorada,17,-12.4785,-49.1249
178,Alvorada,43,-29.9914,-51.0809
179,Alvorada D'Oeste,11,-11.3463,-62.2847
180,Alvorada de Minas,31,-18.7334,-43.3638
181,Alvorada do Gurguéia,22,-8.42418,-43.777
182,Alvorada do Norte,52,-14.4797,-46.491
183,Alvorada do Sul,41,-22.7813,-51.2297
184,Amajari,14,3.64571,-61.3692
185,Amambai,50,-23.1058,-55.2253
186,Amapá,16,2.05267,-50.7957
187,Amapá do Maranhão,21,-1.67524,-46.0024
188,Amaporã,41,-23.0943,-52.7866
189,Amaraji,26,-8.37691,-35.4501
190,Amaral Ferrador,43,-30.8756,-52.2509
191,Amaralina,52,-13.9236,-49.2962
192,Amarante,22,-6.24304,-42.8433
193,Amarante do Maranhão,21,-5.56913,-46.7473
194,Amargosa,29,-13.0215,-39.602
195,Amaturá,13,-3.37455,-68.2005
196,Amélia Rodrigues,29,-12.3914,-38.7563
197,América Dourada,29,-11.4429,-41.439
198,Americana,35,-22.7374,-47.3331
199,Americano do Brasil,52,-16.2514,-49.9831
200,Américo Brasiliense,35,-21.7288,-48.1147
201,Américo de Campos,35,-20.2985,-49.7359
202,Ametista do Sul,43,-27.3607,-53.183
203,Amontada,23,-3.36017,-39.8288
204,Amorinópolis,52,-16.6151,-51.0919
205,Amparo,25,-7.55502,-37.0628
206,Amparo,35,-22.7088,-46.772
207,Amparo de São Francisco,28,-10.1348,-36.935
208,Amparo do Serra,31,-20.5051,-42.8009
209,Ampére,41,-25.9168,-53.4686
210,Anadia,27,-9.68489,-36.3078
211,Anagé,29,-14.6151,-41.1356
212,Anahy,41,-24.6449,-53.1332
213,Anajás,15,-0.996811,-49.9354
214,Anajatuba,21,-3.26269,-44.6126
215,Analândia,35,-22.1289,-47.6619
216,Anamã,13,-3.56697,-61.3963
217,Ananás,17,-6.36437,-48.0735
218,Ananindeua,15,-1.36391,-48.3743
219,Anápolis,52,-16.3281,-48.953
220,Anapu,15,-3.46985,-51.2003
221,Anapurus,21,-3.67577,-43.1014
222,Anastácio,50,-20.4823,-55.8104
223,Anaurilândia,50,-22.1852,-52.7191
224,Anchieta,42,-26.5382,-53.3319
225,Anchieta,32,-20.7955,-40.6425
226,Andaraí,29,-12.8049,-41.3297
227,Andirá,41,-23.0533,-50.2304
228,Andorinha,29,-10.3482,-39.8391
229,Andradas,31,-22.0695,-46.5724
230,Andradina,35,-20.8948,-51.3786
231,André da Rocha,43,-28.6283,-51.5797
232,Andrelândia,31,-21.7411,-44.3117
233,Angatuba,35,-23.4917,-48.4139
234,Angelândia,31,-17.7279,-42.2641
235,Angélica,50,-22.1527,-53.7708
236,Angelim,26,-8.88429,-36.2902
237,Angelina,42,-27.5704,-48.9879
238,Angical,29,-12.0063,-44.7003
239,Angical do Piauí,22,-6.08786,-42.74
240,Angico,17,-6.39179,-47.8611
241,Angicos,24,-5.65792,-36.6094
242,Angra dos Reis,33,-23.0011,-44.3196
243,Anguera,29,-12.1462,-39.2462
244,Ângulo,41,-23.1946,-51.9154
245,Anhanguera,52,-18.3339,-48.2204
246,Anhembi,35,-22.793,-48.1336
247,Anhumas,35,-22.2934,-51.3895
248,Anicuns,52,-16.4642,-49.9617
249,Anísio de Abreu,22,-9.18564,-43.0494
250,Anita Garibaldi,42,-27.6897,-51.1271
251,Anitápolis,42,-27.9012,-49.1316
252,Anori,13,-3.74603,-61.6575
253,Anta Gorda,43,-28.9698,-52.0102
254,Antas,29,-10.3856,-38.3401
255,Antonina,41,-25.4386,-48.7191
256,Antonina do Norte,23,-6.76919,-39.987
257,Antônio Almeida,22,-7.21276,-44.1889
258,Antônio Cardoso,29,-12.4335,-39.1176
259,Antônio Carlos,42,-27.5191,-48.766
260,Antônio Carlos,31,-21.321,-43.7451
261,Antônio Dias,31,-19.6491,-42.8732
262,Antônio Gonçalves,29,-10.5767,-40.2785
263,Antônio João,50,-22.1927,-55.9517
264,Antônio Martins,24,-6.21367,-37.8834
265,Antônio Olinto,41,-25.9804,-50.1972
266,Antônio Prado,43,-28.8565,-51.2883
267,Antônio Prado de Minas,31,-21.0192,-42.1109
268,Aparecida,25,-6.78466,-38.0803
269,Aparecida,35,-22.8495,-45.2325
270,Aparecida d'Oeste,35,-20.4487,-50.8835
271,Aparecida de Goiânia,52,-16.8198,-49.2469
272,Aparecida do Rio Doce,52,-18.2941,-51.1516
273,Aparecida do Rio Negro,17,-9.94139,-47.9638
274,Aparecida do Taboado,50,-20.0873,-51.0961
275,Aperibé,33,-21.6252,-42.1017
276,Apiacá,32,-21.1523,-41.5693
277,Apiacás,51,-9.53981,-57.4587
278,Apiaí,35,-24.5108,-48.8443
279,Apicum-Açu,21,-1.45862,-45.0864
280,Apiúna,42,-27.0375,-49.3885
281,Apodi,24,-5.65349,-37.7946
282,Aporá,29,-11.6577,-38.0814
283,Aporé,52,-18.9607,-51.9232
284,Apuarema,29,-13.8542,-39.7501
285,Apucarana,41,-23.55,-51.4635
286,Apuí,13,-7.19409,-59.896
287,Apuiarés,23,-3.94506,-39.4359
288,Aquidabã,28,-10.278,-37.0148
289,Aquidauana,50,-20.4666,-55.7868
290,Aquiraz,23,-3.89929,-38.3896
291,Arabutã,42,-27.1587,-52.1423
292,Araçagi,25,-6.84374,-35.3737
293,Araçaí,31,-19.1955,-44.2493
294,Aracaju,28,-10.9091,-37.0677
295,Araçariguama,35,-23.4366,-47.0608
296,Araças,29,-12.22,-38.2027
297,Aracati,23,-4.55826,-37.7679
298,Aracatu,29,-14.428,-41.4648
299,Araçatuba,35,-21.2076,-50.4401
300,Araci,29,-11.3253,-38.9584
301,Aracitaba,31,-21.3446,-43.3736
302,Araçoiaba,26,-7.78391,-35.0809
303,Aracoiaba,23,-4.36872,-38.8125
304,Araçoiaba da Serra,35,-23.5029,-47.6166
305,Aracruz,32,-19.82,-40.2764
306,Araçu,52,-16.3563,-49.6804
307,Araçuaí,31,-16.8523,-42.0637
308,Aragarças,52,-15.8955,-52.2372
309,Aragoiânia,52,-16.9087,-49.4476
310,Aragominas,17,-7.16005,-48.5291
311,Araguacema,17,-8.80755,-49.5569
312,Araguaçu,17,-12.9289,-49.8231
313,Araguaiana,51,-15.7291,-51.8341
314,Araguaína,17,-7.19238,-48.2044
315,Araguainha,51,-16.857,-53.0318
316,Araguanã,17,-6.58225,-48.6395
317,Araguanã,21,-2.94644,-45.6589
318,Araguapaz,52,-15.0909,-50.6315
319,Araguari,31,-18.6456,-48.1934
320,Araguatins,17,-5.64659,-48.1232
321,Araioses,21,-2.89091,-41.905
322,Aral Moreira,50,-22.9385,-55.6334
323,Aramari,29,-12.0884,-38.4969
324,Arambaré,43,-30.9092,-51.5046
325,Arame,21,-4.88347,-46.0032
326,Aramina,35,-20.0882,-47.7873
327,Arandu,35,-23.1386,-49.0487
328,Arantina,31,-21.9102,-44.2555
329,Arapeí,35,-22.6717,-44.4441
330,Arapiraca,27,-9.75487,-36.6615
331,Arapoema,17,-7.65463,-49.0637
332,Araponga,31,-20.6686,-42.5178
333,Arapongas,41,-23.4153,-51.4259
334,Araporã,31,-18.4357,-49.1847
335,Arapoti,41,-24.1548,-49.8285
336,Arapuã,41,-24.3132,-51.7856
337,Arapuá,31,-19.0268,-46.1484
338,Araputanga,51,-15.4641,-58.3425
339,Araquari,42,-26.3754,-48.7188
340,Arara,25,-6.82813,-35.7552
341,Araranguá,42,-28.9356,-49.4918
342,Araraquara,35,-21.7845,-48.178
343,Araras,35,-22.3572,-47.3842
344,Ararendá,23,-4.74567,-40.831
345,Arari,21,-3.45214,-44.7665
346,Araricá,43,-29.6168,-50.9291
347,Araripe,23,-7.21319,-40.1359
348,Araripina,26,-7.57073,-40.494
349,Araruama,33,-22.8697,-42.3326
350,Araruna,41,-23.9315,-52.5021
351,Araruna,25,-6.54848,-35.7498
352,Arataca,29,-15.2651,-39.419
353,Aratiba,43,-27.3978,-52.2975
354,Aratuba,23,-4.41229,-39.0471
355,Aratuípe,29,-13.0716,-39.0038
356,Arauá,28,-11.2614,-37.6201
357,Araucária,41,-25.5859,-49.4047
358,Araújos,31,-19.9405,-45.1671
359,Araxá,31,-19.5902,-46.9438
360,Arceburgo,31,-21.359,-46.9401
361,Arco-Íris,35,-21.7728,-50.466
362,Arcos,31,-20.2863,-45.5373
363,Arcoverde,26,-8.41519,-37.0577
364,Areado,31,-21.3572,-46.1421
365,Areal,33,-22.2283,-43.1118
366,Arealva,35,-22.031,-48.9135
367,Areia,25,-6.96396,-35.6977
368,Areia Branca,24,-4.95254,-37.1252
369,Areia Branca,28,-10.758,-37.3251
370,Areia de Baraúnas,25,-7.11702,-36.9404
371,Areial,25,-7.04789,-35.9313
372,Areias,35,-22.5786,-44.6992
373,Areiópolis,35,-22.6672,-48.6681
374,Arenápolis,51,-14.4472,-56.8437
375,Arenópolis,52,-16.3837,-51.5563
376,Arês,24,-6.18831,-35.1608
377,Argirita,31,-21.6083,-42.8292
378,Aricanduva,31,-17.8666,-42.5533
379,Arinos,31,-15.9187,-46.1043
380,Aripuanã,51,-10.1723,-59.4568
381,Ariquemes,11,-9.90571,-63.0325
382,Ariranha,35,-21.1872,-48.7904
383,Ariranha do Ivaí,41,-24.3857,-51.5839
384,Armação dos Búzios,33,-22.7528,-41.8846
385,Armazém,42,-28.2448,-49.0215
386,Arneiroz,23,-6.3165,-40.1653
387,Aroazes,22,-6.11022,-41.7822
388,Aroeiras,25,-7.54473,-35.7066
389,Aroeiras do Itaim,22,-7.24502,-41.5325
390,Arraial,22,-6.65075,-42.5418
391,Arraial do Cabo,33,-22.9774,-42.0267
392,Arraias,17,-12.9287,-46.9359
393,Arroio do Meio,43,-29.4014,-51.9557
394,Arroio do Padre,43,-31.4389,-52.4246
395,Arroio do Sal,43,-29.5439,-49.8895
396,Arroio do Tigre,43,-29.3348,-53.0966
397,Arroio dos Ratos,43,-30.0875,-51.7275
398,Arroio Grande,43,-32.2327,-53.0862
399,Arroio Trinta,42,-26.9257,-51.3407
400,Artur Nogueira,35,-22.5727,-47.1727
401,Aruanã,52,-14.9166,-51.075
402,Arujá,35,-23.3965,-46.32
403,Arvoredo,42,-27.0748,-52.4543
404,Arvorezinha,43,-28.8737,-52.1781
405,Ascurra,42,-26.9548,-49.3783
406,Aspásia,35,-20.16,-50.728
407,Assaí,41,-23.3697,-50.8459
408,Assaré,23,-6.8669,-39.8689
409,Assis,35,-22.66,-50.4183
410,Assis Brasil,12,-10.9298,-69.5738
411,Assis Chateaubriand,41,-24.4168,-53.5213
412,Assunção,25,-7.07231,-36.725
413,Assunção do Piauí,22,-5.865,-41.0389
414,Astolfo Dutra,31,-21.3184,-42.8572
415,Astorga,41,-23.2318,-51.6668
416,Atalaia,41,-23.1517,-52.0551
417,Atalaia,27,-9.5119,-36.0086
418,Atalaia do Norte,13,-4.37055,-70.1967
419,Atalanta,42,-27.4219,-49.7789
420,Ataléia,31,-18.0438,-41.1149
421,Atibaia,35,-23.1171,-46.5563
422,Atilio Vivacqua,32,-20.913,-41.1986
423,Augustinópolis,17,-5.46863,-47.8863
424,Augusto Corrêa,15,-1.05109,-46.6147
425,Augusto de Lima,31,-18.0997,-44.2655
426,Augusto Pestana,43,-28.5172,-53.9883
427,Augusto Severo (Campo Grande),24,-5.86206,-37.3135
428,Áurea,43,-27.6936,-52.0505
429,Aurelino Leal,29,-14.321,-39.329
430,Auriflama,35,-20.6836,-50.5572
431,Aurilândia,52,-16.6773,-50.4641
432,Aurora,23,-6.93349,-38.9742
433,Aurora,42,-27.3098,-49.6295
434,Aurora do Pará,15,-2.14898,-47.5677
435,Aurora do Tocantins,17,-12.7105,-46.4076
436,Autazes,13,-3.58574,-59.1256
437,Avaí,35,-22.1514,-49.3356
438,Avanhandava,35,-21.4584,-49.9509
439,Avaré,35,-23.1067,-48.9251
440,Aveiro,15,-3.60841,-55.3199
441,Avelino Lopes,22,-10.1345,-43.9563
442,Avelinópolis,52,-16.4672,-49.7579
443,Axixá,21,-2.83939,-44.062
444,Axixá do Tocantins,17,-5.61275,-47.7701
445,Babaçulândia,17,-7.20923,-47.7613
446,Bacabal,21,-4.22447,-44.7832
447,Bacabeira,21,-2.96452,-44.3164
448,Bacuri,21,-1.6965,-45.1328
449,Bacurituba,21,-2.71,-44.7329
450,Bady Bassitt,35,-20.9197,-49.4385
451,Baependi,31,-21.957,-44.8874
452,Bagé,43,-31.3297,-54.0999
453,Bagre,15,-1.90057,-50.1987
454,Baía da Traição,25,-6.69209,-34.9381
455,Baía Formosa,24,-6.37161,-35.0033
456,Baianópolis,29,-12.3016,-44.5388
457,Baião,15,-2.79021,-49.6694
458,Baixa Grande,29,-11.9519,-40.169
459,Baixa Grande do Ribeiro,22,-7.84903,-45.219
460,Baixio,23,-6.71945,-38.7134
461,Baixo Guandu,32,-19.5213,-41.0109
462,Balbinos,35,-21.8963,-49.3619
463,Baldim,31,-19.2832,-43.9613
464,Baliza,52,-16.1966,-52.5393
465,Balneário Arroio do Silva,42,-28.9806,-49.4237
466,Balneário Barra do Sul,42,-26.4597,-48.6123
467,Balneário Camboriú,42,-26.9926,-48.6352
468,Balneário Gaivota,42,-29.1527,-49.5841
469,Balneário Piçarras,42,-26.7639,-48.6717
470,Balneário Pinhal,43,-30.2419,-50.2337
471,Balneário Rincão,42,-28.8314,-49.2352
472,Balsa Nova,41,-25.5804,-49.6291
473,Bálsamo,35,-20.7348,-49.5865
474,Balsas,21,-7.53214,-46.0372
475,Bambuí,31,-20.0166,-45.9754
476,Banabuiú,23,-5.30454,-38.9132
477,Bananal,35,-22.6819,-44.3281
478,Bananeiras,25,-6.74775,-35.6246
479,Bandeira,31,-15.8783,-40.5622
480,Bandeira do Sul,31,-21.7308,-46.3833
481,Bandeirante,42,-26.7705,-53.6413
482,Bandeirantes,50,-19.9275,-54.3585
483,Bandeirantes,41,-23.1078,-50.3704
484,Bandeirantes do Tocantins,17,-7.75612,-48.5836
485,Bannach,15,-7.34779,-50.3959
486,Banzaê,29,-10.5788,-38.6212
487,Barão,43,-29.3725,-51.4949
488,Barão de Antonina,35,-23.6284,-49.5634
489,Barão de Cocais,31,-19.9389,-43.4755
490,Barão de Cotegipe,43,-27.6208,-52.3798
491,Barão de Grajaú,21,-6.74463,-43.0261
492,Barão de Melgaço,51,-16.2067,-55.9623
493,Barão de Monte Alto,31,-21.2444,-42.2372
494,Barão do Triunfo,43,-30.3891,-51.7384
495,Baraúna,24,-5.06977,-37.6129
496,Baraúna,25,-6.63484,-36.2601
497,Barbacena,31,-21.2214,-43.7703
498,Barbalha,23,-7.2982,-39.3021
499,Barbosa,35,-21.2657,-49.9518
500,Barbosa Ferraz,41,-24.0334,-52.004
501,Barcarena,15,-1.51187,-48.6195
502,Barcelona,24,-5.94284,-35.9247
503,Barcelos,13,-0.983373,-62.9311
504,Bariri,35,-22.073,-48.7438
505,Barra,29,-11.0859,-43.1459
506,Barra Bonita,42,-26.654,-53.44
507,Barra Bonita,35,-22.4909,-48.5583
508,Barra D'Alcântara,22,-6.51645,-42.1146
509,Barra da Estiva,29,-13.6237,-41.3347
510,Barra de Guabiraba,26,-8.42075,-35.6585
511,Barra de Santa Rosa,25,-6.71816,-36.0671
512,Barra de Santana,25,-7.51809,-35.9913
513,Barra de Santo Antônio,27,-9.4023,-35.5101
514,Barra de São Francisco,32,-18.7548,-40.8965
515,Barra de São Miguel,25,-7.74603,-36.3209
516,Barra de São Miguel,27,-9.83842,-35.9057
517,Barra do Bugres,51,-15.0702,-57.1878
518,Barra do Chapéu,35,-24.4722,-49.0238
519,Barra do Choça,29,-14.8654,-40.5791
520,Barra do Corda,21,-5.49682,-45.2485
521,Barra do Garças,51,-15.8804,-52.264
522,Barra do Guarita,43,-27.1927,-53.7109
523,Barra do Jacaré,41,-23.116,-50.1842
524,Barra do Mendes,29,-11.81,-42.059
525,Barra do Ouro,17,-7.69593,-47.6776
526,Barra do Piraí,33,-22.4715,-43.8269
527,Barra do Quaraí,43,-30.2029,-57.5497
528,Barra do Ribeiro,43,-30.2939,-51.3014
529,Barra do Rio Azul,43,-27.4069,-52.4084
530,Barra do Rocha,29,-14.2,-39.5991
531,Barra do Turvo,35,-24.759,-48.5013
532,Barra dos Coqueiros,28,-10.8996,-37.0323
533,Barra Funda,43,-27.9205,-53.0391
534,Barra Longa,31,-20.2869,-43.0402
535,Barra Mansa,33,-22.5481,-44.1752
536,Barra Velha,42,-26.637,-48.6933
537,Barracão,43,-27.6739,-51.4585
538,Barracão,41,-26.2502,-53.6324
539,Barras,22,-4.24468,-42.2922
540,Barreira,23,-4.28921,-38.6429
541,Barreiras,29,-12.1439,-44.9968
542,Barreiras do Piauí,22,-9.9296,-45.4702
543,Barreirinha,13,-2.79886,-57.0679
544,Barreirinhas,21,-2.75863,-42.8232
545,Barreiros,26,-8.81605,-35.1832
546,Barretos,35,-20.5531,-48.5698
547,Barrinha,35,-21.1864,-48.1636
548,Barro,23,-7.17188,-38.7741
549,Barro Alto,29,-11.7605,-41.9054
550,Barro Alto,52,-14.9658,-48.9086
551,Barro Duro,22,-5.81673,-42.5147
552,Barro Preto,29,-14.7948,-39.476
553,Barrocas,29,-11.5272,-39.0776
554,Barrolândia,17,-9.83404,-48.7252
555,Barroquinha,23,-3.02051,-41.1358
556,Barros Cassal,43,-29.0947,-52.5836
557,Barroso,31,-21.1907,-43.972
558,Barueri,35,-23.5057,-46.879
559,Bastos,35,-21.921,-50.7357
560,Bataguassu,50,-21.7159,-52.4221
561,Batalha,22,-4.0223,-42.0787
562,Batalha,27,-9.6742,-37.133
563,Batatais,35,-20.8929,-47.5921
564,Batayporã,50,-22.2944,-53.2705
565,Baturité,23,-4.32598,-38.8812
566,Bauru,35,-22.3246,-49.0871
567,Bayeux,25,-7.1238,-34.9293
568,Bebedouro,35,-20.9491,-48.4791
569,Beberibe,23,-4.17741,-38.1271
570,Bela Cruz,23,-3.04996,-40.1671
571,Bela Vista,50,-22.1073,-56.5263
572,Bela Vista da Caroba,41,-25.8842,-53.6725
573,Bela Vista de Goiás,52,-16.9693,-48.9513
574,Bela Vista de Minas,31,-19.8302,-43.0922
575,Bela Vista do Maranhão,21,-3.72618,-45.3075
576,Bela Vista do Paraíso,41,-22.9937,-51.1927
577,Bela Vista do Piauí,22,-7.98809,-41.8675
578,Bela Vista do Toldo,42,-26.2746,-50.4664
579,Belágua,21,-3.15485,-43.5122
580,Belém,15,-1.4554,-48.4898
581,Belém,25,-6.74261,-35.5166
582,Belém,27,-9.57047,-36.4904
583,Belém de Maria,26,-8.62504,-35.8335
584,Belém do Brejo do Cruz,25,-6.18515,-37.5348
585,Belém do Piauí,22,-7.36652,-40.9688
586,Belém do São Francisco,26,-8.75046,-38.9623
587,Belford Roxo,33,-22.764,-43.3992
588,Belmiro Braga,31,-21.944,-43.4084
589,Belmonte,42,-26.843,-53.5758
590,Belmonte,29,-15.8608,-38.8758
591,Belo Campo,29,-15.0334,-41.2652
592,Belo Horizonte,31,-19.9102,-43.9266
593,Belo Jardim,26,-8.3313,-36.4258
594,Belo Monte,27,-9.82272,-37.277
595,Belo Oriente,31,-19.2199,-42.4828
596,Belo Vale,31,-20.4077,-44.0275
597,Belterra,15,-2.63609,-54.9374
598,Beneditinos,22,-5.45676,-42.3638
599,Benedito Leite,21,-7.21037,-44.5577
600,Benedito Novo,42,-26.781,-49.3593
601,Benevides,15,-1.36183,-48.2434
602,Benjamin Constant,13,-4.37768,-70.0342
603,Benjamin Constant do Sul,43,-27.5086,-52.5995
604,Bento de Abreu,35,-21.2686,-50.814
605,Bento Fernandes,24,-5.69906,-35.813
606,Bento Gonçalves,43,-29.1662,-51.5165
607,Bequimão,21,-2.44162,-44.7842
608,Berilo,31,-16.9567,-42.4606
609,Berizal,31,-15.61,-41.7432
610,Bernardino Batista,25,-6.44572,-38.5521
611,Bernardino de Campos,35,-23.0164,-49.4679
612,Bernardo do Mearim,21,-4.62666,-44.7608
613,Bernardo Sayão,17,-7.87481,-48.8893
614,Bertioga,35,-23.8486,-46.1396
615,Bertolínia,22,-7.63338,-43.9498
616,Bertópolis,31,-17.059,-40.58
617,Beruri,13,-3.89874,-61.3616
618,Betânia,26,-8.26787,-38.0345
619,Betânia do Piauí,22,-8.14376,-40.7989
620,Betim,31,-19.9668,-44.2008
621,Bezerros,26,-8.2328,-35.796
622,Bias Fortes,31,-21.602,-43.7574
623,Bicas,31,-21.7232,-43.056
624,Biguaçu,42,-27.496,-48.6598
625,Bilac,35,-21.404,-50.4746
626,Biquinhas,31,-18.7754,-45.4974
627,Birigui,35,-21.291,-50.3432
628,Biritiba-Mirim,35,-23.5698,-46.0407
629,Biritinga,29,-11.6072,-38.8051
630,Bituruna,41,-26.1607,-51.5518
631,Blumenau,42,-26.9155,-49.0709
632,Boa Esperança,41,-24.2467,-52.7876
633,Boa Esperança,31,-21.0927,-45.5612
634,Boa Esperança,32,-18.5395,-40.3025
635,Boa Esperança do Iguaçu,41,-25.6324,-53.2108
636,Boa Esperança do Sul,35,-21.9918,-48.3906
637,Boa Hora,22,-4.41404,-42.1357
638,Boa Nova,29,-14.3598,-40.2064
639,Boa Ventura,25,-7.40982,-38.2113
640,Boa Ventura de São Roque,41,-24.8688,-51.6276
641,Boa Viagem,23,-5.11258,-39.7337
642,Boa Vista,14,2.82384,-60.6753
643,Boa Vista,25,-7.26365,-36.2357
644,Boa Vista da Aparecida,41,-25.4308,-53.4117
645,Boa Vista das Missões,43,-27.6671,-53.3102
646,Boa Vista do Buricá,43,-27.6693,-54.1082
647,Boa Vista do Cadeado,43,-28.5791,-53.8108
648,Boa Vista do Gurupi,21,-1.77614,-46.3002
649,Boa Vista do Incra,43,-28.8185,-53.391
650,Boa Vista do Ramos,13,-2.97409,-57.5873
651,Boa Vista do Sul,43,-29.3544,-51.6687
652,Boa Vista do Tupim,29,-12.6498,-40.6064
653,Boca da Mata,27,-9.64308,-36.2125
654,Boca do Acre,13,-8.74232,-67.3919
655,Bocaina,22,-6.94124,-41.3168
656,Bocaina,35,-22.1365,-48.523
657,Bocaina de Minas,31,-22.1697,-44.3972
658,Bocaina do Sul,42,-27.7455,-49.9423
659,Bocaiúva,31,-17.1135,-43.8104
660,Bocaiúva do Sul,41,-25.2066,-49.1141
661,Bodó,24,-5.98027,-36.4167
662,Bodocó,26,-7.77759,-39.9338
663,Bodoquena,50,-20.537,-56.7127
664,Bofete,35,-23.1055,-48.2582
665,Boituva,35,-23.2855,-47.6786
666,Bom Conselho,26,-9.16919,-36.6857
667,Bom Despacho,31,-19.7386,-45.2622
668,Bom Jardim,33,-22.1545,-42.4251
669,Bom Jardim,26,-7.79695,-35.5784
670,Bom Jardim,21,-3.54129,-45.606
671,Bom Jardim da Serra,42,-28.3377,-49.6373
672,Bom Jardim de Goiás,52,-16.2063,-52.1728
673,Bom Jardim de Minas,31,-21.9479,-44.1885
674,Bom Jesus,42,-26.7326,-52.3919
675,Bom Jesus,43,-28.6697,-50.4295
676,Bom Jesus,22,-9.07124,-44.359
677,Bom Jesus,24,-5.98648,-35.5792
678,Bom Jesus,25,-6.81601,-38.6453
679,Bom Jesus da Lapa,29,-13.2506,-43.4108
680,Bom Jesus da Penha,31,-21.0148,-46.5174
681,Bom Jesus da Serra,29,-14.3663,-40.5126
682,Bom Jesus das Selvas,21,-4.47638,-46.8641
683,Bom Jesus de Goiás,52,-18.2173,-49.74
684,Bom Jesus do Amparo,31,-19.7054,-43.4782
685,Bom Jesus do Araguaia,51,-12.1706,-51.5032
686,Bom Jesus do Galho,31,-19.836,-42.3165
687,Bom Jesus do Itabapoana,33,-21.1449,-41.6822
688,Bom Jesus do Norte,32,-21.1173,-41.6731
689,Bom Jesus do Oeste,42,-26.6927,-53.0967
690,Bom Jesus do Sul,41,-26.1958,-53.5955
691,Bom Jesus do Tocantins,15,-5.0424,-48.6047
692,Bom Jesus do Tocantins,17,-8.96306,-48.165
693,Bom Jesus dos Perdões,35,-23.1356,-46.4675
694,Bom Lugar,21,-4.37311,-45.0326
695,Bom Princípio,43,-29.4856,-51.3548
696,Bom Princípio do Piauí,22,-3.19631,-41.6403
697,Bom Progresso,43,-27.5399,-53.8716
698,Bom Repouso,31,-22.4675,-46.144
699,Bom Retiro,42,-27.799,-49.487
700,Bom Retiro do Sul,43,-29.6071,-51.9456
701,Bom Sucesso,31,-21.0329,-44.7537
702,Bom Sucesso,41,-23.7063,-51.7671
703,Bom Sucesso,25,-6.44176,-37.9234
704,Bom Sucesso de Itararé,35,-24.3155,-49.1451
705,Bom Sucesso do Sul,41,-26.0731,-52.8353
706,Bombinhas,42,-27.1382,-48.5146
707,Bonfim,14,3.36161,-59.8333
708,Bonfim,31,-20.3302,-44.2366
709,Bonfim do Piauí,22,-9.1605,-42.8865
710,Bonfinópolis,52,-16.6173,-48.9616
711,Bonfinópolis de Minas,31,-16.568,-45.9839
712,Boninal,29,-12.7069,-41.8286
713,Bonito,26,-8.47163,-35.7292
714,Bonito,29,-11.9668,-41.2647
715,Bonito,15,-1.36745,-47.3066
716,Bonito,50,-21.1261,-56.4836
717,Bonito de Minas,31,-15.3231,-44.7543
718,Bonito de Santa Fé,25,-7.31341,-38.5133
719,Bonópolis,52,-13.6329,-49.8106
720,Boqueirão,25,-7.487,-36.1309
721,Boqueirão do Leão,43,-29.3046,-52.4284
722,Boqueirão do Piauí,22,-4.48181,-42.1212
723,Boquim,28,-11.1397,-37.6195
724,Boquira,29,-12.8205,-42.7324
725,Borá,35,-22.2696,-50.5409
726,Boracéia,35,-22.1926,-48.7808
727,Borba,13,-4.39154,-59.5874
728,Borborema,25,-6.80199,-35.6187
729,Borborema,35,-21.6214,-49.0741
730,Borda da Mata,31,-22.2707,-46.1653
731,Borebi,35,-22.5728,-48.9707
732,Borrazópolis,41,-23.9366,-51.5875
733,Bossoroca,43,-28.7291,-54.9035
734,Botelhos,31,-21.6412,-46.391
735,Botucatu,35,-22.8837,-48.4437
736,Botumirim,31,-16.8657,-43.0086
737,Botuporã,29,-13.3772,-42.5163
738,Botuverá,42,-27.2007,-49.0689
739,Bozano,43,-28.3659,-53.772
740,Braço do Norte,42,-28.2681,-49.1701
741,Braço do Trombudo,42,-27.3586,-49.8821
742,Braga,43,-27.6173,-53.7405
743,Bragança,15,-1.06126,-46.7826
744,Bragança Paulista,35,-22.9527,-46.5419
745,Braganey,41,-24.8173,-53.1218
746,Branquinha,27,-9.23342,-36.0162
747,Brás Pires,31,-20.8419,-43.2406
748,Brasil Novo,15,-3.29792,-52.534
749,Brasilândia,50,-21.2544,-52.0365
750,Brasilândia de Minas,31,-16.9999,-46.0081
751,Brasilândia do Sul,41,-24.1978,-53.5275
752,Brasilândia do Tocantins,17,-8.38918,-48.4822
753,Brasiléia,12,-10.995,-68.7497
754,Brasileira,22,-4.1337,-41.7859
755,Brasília,53,-15.7795,-47.9297
756,Brasília de Minas,31,-16.2104,-44.4299
757,Brasnorte,51,-12.1474,-57.9833
758,Braúna,35,-21.499,-50.3175
759,Braúnas,31,-19.0562,-42.7099
760,Brazabrantes,52,-16.4281,-49.3863
761,Brazópolis,31,-22.4743,-45.6166
762,Brejão,26,-9.02915,-36.566
763,Brejetuba,32,-20.1395,-41.2954
764,Brejinho,24,-6.18566,-35.3591
765,Brejinho,26,-7.34694,-37.2865
766,Brejinho de Nazaré,17,-11.0058,-48.5683
767,Brejo,21,-3.67796,-42.7527
768,Brejo Alegre,35,-21.1651,-50.1861
769,Brejo da Madre de Deus,26,-8.14933,-36.3741
770,Brejo de Areia,21,-4.334,-45.581
771,Brejo do Cruz,25,-6.34185,-37.4943
772,Brejo do Piauí,22,-8.20314,-42.8229
773,Brejo dos Santos,25,-6.37065,-37.8253
774,Brejo Grande,28,-10.4297,-36.4611
775,Brejo Grande do Araguaia,15,-5.69822,-48.4103
776,Brejo Santo,23,-7.48469,-38.9799
777,Brejões,29,-13.1039,-39.7988
778,Brejolândia,29,-12.4815,-43.9679
779,Breu Branco,15,-3.77191,-49.5735
780,Breves,15,-1.68036,-50.4791
781,Britânia,52,-15.2428,-51.1602
782,Brochier,43,-29.5501,-51.5945
783,Brodowski,35,-20.9845,-47.6572
784,Brotas,35,-22.2795,-48.1251
785,Brotas de Macaúbas,29,-11.9915,-42.6326
786,Brumadinho,31,-20.151,-44.2007
787,Brumado,29,-14.2021,-41.6696
788,Brunópolis,42,-27.3058,-50.8684
789,Brusque,42,-27.0977,-48.9107
790,Bueno Brandão,31,-22.4383,-46.3491
791,Buenópolis,31,-17.8744,-44.1775
792,Buenos Aires,26,-7.72449,-35.3182
793,Buerarema,29,-14.9595,-39.3028
794,Bugre,31,-19.4231,-42.2552
795,Buíque,26,-8.61954,-37.1606
796,Bujari,12,-9.81528,-67.955
797,Bujaru,15,-1.51762,-48.0381
798,Buri,35,-23.7977,-48.5958
799,Buritama,35,-21.0661,-50.1475
800,Buriti,21,-3.94169,-42.9179
801,Buriti Alegre,52,-18.1378,-49.0404
802,Buriti Bravo,21,-5.83239,-43.8353
803,Buriti de Goiás,52,-16.1792,-50.4302
804,Buriti do Tocantins,17,-5.31448,-48.2271
805,Buriti dos Lopes,22,-3.18259,-41.8695
806,Buriti dos Montes,22,-5.30584,-41.0933
807,Buriticupu,21,-4.32375,-46.4409
808,Buritinópolis,52,-14.4772,-46.4076
809,Buritirama,29,-10.7171,-43.6302
810,Buritirana,21,-5.59823,-47.0131
811,Buritis,11,-10.1943,-63.8324
812,Buritis,31,-15.6218,-46.4221
813,Buritizal,35,-20.1911,-47.7096
814,Buritizeiro,31,-17.3656,-44.9606
815,Butiá,43,-30.1179,-51.9601
816,Caapiranga,13,-3.31537,-61.2206
817,Caaporã,25,-7.51351,-34.9055
818,Caarapó,50,-22.6368,-54.8209
819,Caatiba,29,-14.9699,-40.4092
820,Cabaceiras,25,-7.48899,-36.287
821,Cabaceiras do Paraguaçu,29,-12.5317,-39.1902
822,Cabeceira Grande,31,-16.0335,-47.0862
823,Cabeceiras,52,-15.7995,-46.9265
824,Cabeceiras do Piauí,22,-4.4773,-42.3069
825,Cabedelo,25,-6.98731,-34.8284
826,Cabixi,11,-13.4945,-60.552
827,Cabo de Santo Agostinho,26,-8.28218,-35.0253
828,Cabo Frio,33,-22.8894,-42.0286
829,Cabo Verde,31,-21.4699,-46.3919
830,Cabrália Paulista,35,-22.4576,-49.3393
831,Cabreúva,35,-23.3053,-47.1362
832,Cabrobó,26,-8.50548,-39.3094
833,Caçador,42,-26.7757,-51.012
834,Caçapava,35,-23.0992,-45.7076
835,Caçapava do Sul,43,-30.5144,-53.4827
836,Cacaulândia,11,-10.349,-62.9043
837,Cacequi,43,-29.8883,-54.822
838,Cáceres,51,-16.0764,-57.6818
839,Cachoeira,29,-12.5994,-38.9587
840,Cachoeira Alta,52,-18.7618,-50.9432
841,Cachoeira da Prata,31,-19.521,-44.4544
842,Cachoeira de Goiás,52,-16.6635,-50.646
843,Cachoeira de Minas,31,-22.3511,-45.7809
844,Cachoeira de Pajeú,31,-15.9688,-41.4948
845,Cachoeira do Arari,15,-1.01226,-48.9503
846,Cachoeira do Piriá,15,-1.75974,-46.5459
847,Cachoeira do Sul,43,-30.033,-52.8928
848,Cachoeira dos Índios,25,-6.91353,-38.676
849,Cachoeira Dourada,52,-18.4859,-49.4766
850,Cachoeira Dourada,31,-18.5161,-49.5039
851,Cachoeira Grande,21,-2.93074,-44.0528
852,Cachoeira Paulista,35,-22.6665,-45.0154
853,Cachoeiras de Macacu,33,-22.4658,-42.6523
854,Cachoeirinha,17,-6.1156,-47.9234
855,Cachoeirinha,26,-8.48668,-36.2402
856,Cachoeirinha,43,-29.9472,-51.1016
857,Cachoeiro de Itapemirim,32,-20.8462,-41.1198
858,Cacimba de Areia,25,-7.12128,-37.1563
859,Cacimba de Dentro,25,-6.6386,-35.7778
860,Cacimbas,25,-7.20721,-37.0604
861,Cacimbinhas,27,-9.40121,-36.9911
862,Cacique Doble,43,-27.767,-51.6597
863,Cacoal,11,-11.4343,-61.4562
864,Caconde,35,-21.528,-46.6437
865,Caçu,52,-18.5594,-51.1328
866,Caculé,29,-14.5003,-42.2229
867,Caém,29,-11.0677,-40.432
868,Caetanópolis,31,-19.2971,-44.4189
869,Caetanos,29,-14.3347,-40.9175
870,Caeté,31,-19.8826,-43.6704
871,Caetés,26,-8.7803,-36.6268
872,Caetité,29,-14.0684,-42.4861
873,Cafarnaum,29,-11.6914,-41.4688
874,Cafeara,41,-22.789,-51.7142
875,Cafelândia,35,-21.8031,-49.6092
876,Cafelândia,41,-24.6189,-53.3207
877,Cafezal do Sul,41,-23.9005,-53.5124
878,Caiabu,35,-22.0127,-51.2394
879,Caiana,31,-20.6956,-41.9292
880,Caiapônia,52,-16.9539,-51.8091
881,Caibaté,43,-28.2905,-54.6454
882,Caibi,42,-27.0741,-53.2458
883,Caiçara,43,-27.2791,-53.4257
884,Caiçara,25,-6.62115,-35.4581
885,Caiçara do Norte,24,-5.07091,-36.0717
886,Caiçara do Rio do Vento,24,-5.76541,-35.9938
887,Caicó,24,-6.45441,-37.1067
888,Caieiras,35,-23.3607,-46.7397
889,Cairu,29,-13.4904,-39.0465
890,Caiuá,35,-21.8322,-51.9969
891,Cajamar,35,-23.355,-46.8781
892,Cajapió,21,-2.87326,-44.6741
893,Cajari,21,-3.32742,-45.0145
894,Cajati,35,-24.7324,-48.1223
895,Cajazeiras,25,-6.88004,-38.5577
896,Cajazeiras do Piauí,22,-6.79667,-42.3903
897,Cajazeirinhas,25,-6.96016,-37.8009
898,Cajobi,35,-20.8773,-48.8063
899,Cajueiro,27,-9.3994,-36.1559
900,Cajueiro da Praia,22,-2.93111,-41.3408
901,Cajuri,31,-20.7903,-42.7925
902,Cajuru,35,-21.2749,-47.303
903,Calçado,26,-8.73108,-36.3366
904,Calçoene,16,2.50475,-50.9512
905,Caldas,31,-21.9183,-46.3843
906,Caldas Brandão,25,-7.1025,-35.3272
907,Caldas Novas,52,-17.7441,-48.6246
908,Caldazinha,52,-16.7117,-49.0013
909,Caldeirão Grande,29,-11.0208,-40.2956
910,Caldeirão Grande do Piauí,22,-7.3314,-40.6366
911,Califórnia,41,-23.6566,-51.3574
912,Calmon,42,-26.5942,-51.095
913,Calumbi,26,-7.93551,-38.1482
914,Camacan,29,-15.4142,-39.4919
915,Camaçari,29,-12.6996,-38.3263
916,Camacho,31,-20.6294,-45.1593
917,Camalaú,25,-7.88503,-36.8242
918,Camamu,29,-13.9398,-39.1071
919,Camanducaia,31,-22.7515,-46.1494
920,Camapuã,50,-19.5347,-54.0431
921,Camaquã,43,-30.8489,-51.8043
922,Camaragibe,26,-8.02351,-34.9782
923,Camargo,43,-28.588,-52.2003
924,Cambará,41,-23.0423,-50.0753
925,Cambará do Sul,43,-29.0474,-50.1465
926,Cambé,41,-23.2766,-51.2798
927,Cambira,41,-23.589,-51.5792
928,Camboriú,42,-27.0241,-48.6503
929,Cambuci,33,-21.5691,-41.9187
930,Cambuí,31,-22.6115,-46.0572
931,Cambuquira,31,-21.854,-45.2896
932,Cametá,15,-2.24295,-49.4979
933,Camocim,23,-2.9005,-40.8544
934,Camocim de São Félix,26,-8.35865,-35.7653
935,Campanário,31,-18.2427,-41.7355
936,Campanha,31,-21.836,-45.4004
937,Campestre,31,-21.7079,-46.2381
938,Campestre,27,-8.84723,-35.5685
939,Campestre da Serra,43,-28.7926,-51.0941
940,Campestre de Goiás,52,-16.7624,-49.695
941,Campestre do Maranhão,21,-6.17075,-47.3625
942,Campina da Lagoa,41,-24.5893,-52.7976
943,Campina das Missões,43,-27.9888,-54.8416
944,Campina do Monte Alegre,35,-23.5895,-48.4758
945,Campina do Simão,41,-25.0802,-51.8237
946,Campina Grande,25,-7.22196,-35.8731
947,Campina Grande do Sul,41,-25.3044,-49.0551
948,Campina Verde,31,-19.5382,-49.4862
949,Campinaçu,52,-13.787,-48.5704
950,Campinápolis,51,-14.5162,-52.893
951,Campinas,35,-22.9053,-47.0659
952,Campinas do Piauí,22,-7.6593,-41.8775
953,Campinas do Sul,43,-27.7174,-52.6248
954,Campinorte,52,-14.3137,-49.1511
955,Campo Alegre,42,-26.195,-49.2676
956,Campo Alegre,27,-9.78451,-36.3525
957,Campo Alegre de Goiás,52,-17.6363,-47.7768
958,Campo Alegre de Lourdes,29,-9.52221,-43.0126
959,Campo Alegre do Fidalgo,22,-8.38236,-41.8344
960,Campo Azul,31,-16.5028,-44.8096
961,Campo Belo,31,-20.8932,-45.2699
962,Campo Belo do Sul,42,-27.8975,-50.7595
963,Campo Bom,43,-29.6747,-51.0606
964,Campo Bonito,41,-25.0294,-52.9939
965,Campo do Brito,28,-10.7392,-37.4954
966,Campo do Meio,31,-21.1127,-45.8273
967,Campo do Tenente,41,-25.98,-49.6844
968,Campo Erê,42,-26.3931,-53.0856
969,Campo Florido,31,-19.7631,-48.5716
970,Campo Formoso,29,-10.5105,-40.32
971,Campo Grande,27,-9.95542,-36.7926
972,Campo Grande,50,-20.4486,-54.6295
973,Campo Grande do Piauí,22,-7.12827,-41.0315
974,Campo Largo,41,-25.4525,-49.529
975,Campo Largo do Piauí,22,-3.80441,-42.64
976,Campo Limpo de Goiás,52,-16.2971,-49.0895
977,Campo Limpo Paulista,35,-23.2078,-46.7889
978,Campo Magro,41,-25.3687,-49.4501
979,Campo Maior,22,-4.8217,-42.1641
980,Campo Mourão,41,-24.0463,-52.378
981,Campo Novo,43,-27.6792,-53.8052
982,Campo Novo de Rondônia,11,-10.5712,-63.6266
983,Campo Novo do Parecis,51,-13.6587,-57.8907
984,Campo Redondo,24,-6.23829,-36.1888
985,Campo Verde,51,-15.545,-55.1626
986,Campos Altos,31,-19.6914,-46.1725
987,Campos Belos,52,-13.035,-46.7681
988,Campos Borges,43,-28.8871,-53.0008
989,Campos de Júlio,51,-13.7242,-59.2858
990,Campos do Jordão,35,-22.7296,-45.5833
991,Campos dos Goytacazes,33,-21.7622,-41.3181
992,Campos Gerais,31,-21.237,-45.7569
993,Campos Lindos,17,-7.98956,-46.8645
994,Campos Novos,42,-27.4002,-51.2276
995,Campos Novos Paulista,35,-22.602,-49.9987
996,Campos Sales,23,-7.06761,-40.3687
997,Campos Verdes,52,-14.2442,-49.6528
998,Camutanga,26,-7.40545,-35.2664
999,Cana Verde,31,-21.0232,-45.1801
1000,Canaã,31,-20.6869,-42.6167
1001,Canaã dos Carajás,15,-6.49659,-49.8776
1002,Canabrava do Norte,51,-11.0556,-51.8209
1003,Cananéia,35,-25.0144,-47.9341
1004,Canapi,27,-9.11932,-37.5967
1005,Canápolis,29,-13.0725,-44.201
1006,Canápolis,31,-18.7212,-49.2035
1007,Canarana,29,-11.6858,-41.7677
1008,Canarana,51,-13.5515,-52.2705
1009,Canas,35,-22.7003,-45.0521
1010,Canavieira,22,-7.68821,-43.7233
1011,Canavieiras,29,-15.6722,-38.9536
1012,Candeal,29,-11.8049,-39.1203
1013,Candeias,29,-12.6716,-38.5472
1014,Candeias,31,-20.7692,-45.2765
1015,Candeias do Jamari,11,-8.7907,-63.7005
1016,Candelária,43,-29.6684,-52.7895
1017,Candiba,29,-14.4097,-42.8667
1018,Cândido de Abreu,41,-24.5649,-51.3372
1019,Cândido Godói,43,-27.9515,-54.7517
1020,Cândido Mendes,21,-1.43265,-45.7161
1021,Cândido Mota,35,-22.7471,-50.3873
1022,Cândido Rodrigues,35,-21.3275,-48.6327
1023,Cândido Sales,29,-15.4993,-41.2414
1024,Candiota,43,-31.5516,-53.6773
1025,Candói,41,-25.5758,-52.0409
1026,Canela,43,-29.356,-50.8119
1027,Canelinha,42,-27.2616,-48.7658
1028,Canguaretama,24,-6.37193,-35.1281
1029,Canguçu,43,-31.396,-52.6783
1030,Canhoba,28,-10.1365,-36.9806
1031,Canhotinho,26,-8.87652,-36.1979
1032,Canindé,23,-4.35162,-39.3155
1033,Canindé de São Francisco,28,-9.64882,-37.7923
1034,Canitar,35,-23.004,-49.7839
1035,Canoas,43,-29.9128,-51.1857
1036,Canoinhas,42,-26.1766,-50.395
1037,Cansanção,29,-10.6647,-39.4944
1038,Cantá,14,2.60994,-60.6058
1039,Cantagalo,33,-21.9797,-42.3664
1040,Cantagalo,41,-25.3734,-52.1198
1041,Cantagalo,31,-18.5248,-42.6223
1042,Cantanhede,21,-3.63757,-44.383
1043,Canto do Buriti,22,-8.1111,-42.9517
1044,Canudos,29,-9.90014,-39.1471
1045,Canudos do Vale,43,-29.3271,-52.2374
1046,Canutama,13,-6.52582,-64.3953
1047,Capanema,15,-1.20529,-47.1778
1048,Capanema,41,-25.6691,-53.8055
1049,Capão Alto,42,-27.9389,-50.5098
1050,Capão Bonito,35,-24.0113,-48.3482
1051,Capão Bonito do Sul,43,-28.1254,-51.3961
1052,Capão da Canoa,43,-29.7642,-50.0282
1053,Capão do Cipó,43,-28.9312,-54.5558
1054,Capão do Leão,43,-31.7565,-52.4889
1055,Caparaó,31,-20.5289,-41.9061
1056,Capela,27,-9.41504,-36.0826
1057,Capela,28,-10.5069,-37.0628
1058,Capela de Santana,43,-29.6961,-51.328
1059,Capela do Alto,35,-23.4685,-47.7388
1060,Capela do Alto Alegre,29,-11.6658,-39.8349
1061,Capela Nova,31,-20.9179,-43.622
1062,Capelinha,31,-17.6888,-42.5147
1063,Capetinga,31,-20.6163,-47.0571
1064,Capim,25,-6.91624,-35.1673
1065,Capim Branco,31,-19.5471,-44.1304
1066,Capim Grosso,29,-11.3797,-40.0089
1067,Capinópolis,31,-18.6862,-49.5706
1068,Capinzal,42,-27.3473,-51.6057
1069,Capinzal do Norte,21,-4.7236,-44.328
1070,Capistrano,23,-4.45569,-38.9048
1071,Capitão,43,-29.2674,-51.9853
1072,Capitão Andrade,31,-19.0748,-41.8614
1073,Capitão de Campos,22,-4.457,-41.944
1074,Capitão Enéas,31,-16.3265,-43.7084
1075,Capitão Gervásio Oliveira,22,-8.49655,-41.814
1076,Capitão Leônidas Marques,41,-25.4816,-53.6112
1077,Capitão Poço,15,-1.74785,-47.0629
1078,Capitólio,31,-20.6164,-46.0493
1079,Capivari,35,-22.9951,-47.5071
1080,Capivari de Baixo,42,-28.4498,-48.9631
1081,Capivari do Sul,43,-30.1383,-50.5152
1082,Capixaba,12,-10.566,-67.686
1083,Capoeiras,26,-8.73423,-36.6306
1084,Caputira,31,-20.1703,-42.2683
1085,Caraá,43,-29.7869,-50.4316
1086,Caracaraí,14,1.82766,-61.1304
1087,Caracol,22,-9.27933,-43.329
1088,Caracol,50,-22.011,-57.0277
1089,Caraguatatuba,35,-23.6125,-45.4125
1090,Caraí,31,-17.1862,-41.7004
1091,Caraíbas,29,-14.7177,-41.2603
1092,Carambeí,41,-24.9152,-50.0986
1093,Caranaíba,31,-20.8707,-43.7417
1094,Carandaí,31,-20.9566,-43.811
1095,Carangola,31,-20.7343,-42.0313
1096,Carapebus,33,-22.1821,-41.663
1097,Carapicuíba,35,-23.5235,-46.8407
1098,Caratinga,31,-19.7868,-42.1292
1099,Carauari,13,-4.88161,-66.9086
1100,Caraúbas,24,-5.78387,-37.5586
1101,Caraúbas,25,-7.72049,-36.492
1102,Caraúbas do Piauí,22,-3.47525,-41.8425
1103,Caravelas,29,-17.7268,-39.2597
1104,Carazinho,43,-28.2958,-52.7933
1105,Carbonita,31,-17.5255,-43.0137
1106,Cardeal da Silva,29,-11.9472,-37.9469
1107,Cardoso,35,-20.08,-49.9183
1108,Cardoso Moreira,33,-21.4846,-41.6165
1109,Careaçu,31,-22.0424,-45.696
1110,Careiro,13,-3.76803,-60.369
1111,Careiro da Várzea,13,-3.314,-59.5557
1112,Cariacica,32,-20.2632,-40.4165
1113,Caridade,23,-4.22514,-39.1912
1114,Caridade do Piauí,22,-7.73435,-40.9848
1115,Carinhanha,29,-14.2985,-43.7724
1116,Carira,28,-10.3524,-37.7002
1117,Cariré,23,-3.94858,-40.476
1118,Cariri do Tocantins,17,-11.8881,-49.1609
1119,Caririaçu,23,-7.02808,-39.2828
1120,Cariús,23,-6.52428,-39.4916
1121,Carlinda,51,-9.94912,-55.8417
1122,Carlópolis,41,-23.4269,-49.7235
1123,Carlos Barbosa,43,-29.2969,-51.5028
1124,Carlos Chagas,31,-17.6973,-40.7723
1125,Carlos Gomes,43,-27.7167,-51.9121
1126,Carmésia,31,-19.0877,-43.1382
1127,Carmo,33,-21.931,-42.6046
1128,Carmo da Cachoeira,31,-21.4633,-45.2201
1129,Carmo da Mata,31,-20.5575,-44.8735
1130,Carmo de Minas,31,-22.1204,-45.1307
1131,Carmo do Cajuru,31,-20.1912,-44.7664
1132,Carmo do Paranaíba,31,-18.991,-46.3167
1133,Carmo do Rio Claro,31,-20.9736,-46.1149
1134,Carmo do Rio Verde,52,-15.3549,-49.708
1135,Carmolândia,17,-7.03262,-48.3978
1136,Carmópolis,28,-10.6449,-36.9887
1137,Carmópolis de Minas,31,-20.5396,-44.6336
1138,Carnaíba,26,-7.79342,-37.7946
1139,Carnaúba dos Dantas,24,-6.55015,-36.5868
1140,Carnaubais,24,-5.34181,-36.8335
1141,Carnaubal,23,-4.15985,-40.9413
1142,Carnaubeira da Penha,26,-8.31799,-38.7512
1143,Carneirinho,31,-19.6987,-50.6894
1144,Carneiros,27,-9.48476,-37.3773
1145,Caroebe,14,0.884203,-59.6959
1146,Carolina,21,-7.33584,-47.4634
1147,Carpina,26,-7.84566,-35.2514
1148,Carrancas,31,-21.4898,-44.6446
1149,Carrapateira,25,-7.03414,-38.3399
1150,Carrasco Bonito,17,-5.31415,-48.0314
1151,Caruaru,26,-8.28455,-35.9699
1152,Carutapera,21,-1.19696,-46.0085
1153,Carvalhópolis,31,-21.7735,-45.8421
1154,Carvalhos,31,-22.0,-44.4632
1155,Casa Branca,35,-21.7708,-47.0852
1156,Casa Grande,31,-20.7925,-43.9343
1157,Casa Nova,29,-9.16408,-40.974
1158,Casca,43,-28.5605,-51.9815
1159,Cascalho Rico,31,-18.5772,-47.8716
1160,Cascavel,41,-24.9573,-53.459
1161,Cascavel,23,-4.12967,-38.2412
1162,Caseara,17,-9.27612,-49.9521
1163,Caseiros,43,-28.2582,-51.6861
1164,Casimiro de Abreu,33,-22.4812,-42.2066
1165,Casinhas,26,-7.74084,-35.7206
1166,Casserengue,25,-6.77954,-35.8179
1167,Cássia,31,-20.5831,-46.9201
1168,Cássia dos Coqueiros,35,-21.2801,-47.1643
1169,Cassilândia,50,-19.1179,-51.7313
1170,Castanhal,15,-1.29797,-47.9167
1171,Castanheira,51,-11.1251,-58.6081
1172,Castanheiras,11,-11.4253,-61.9482
1173,Castelândia,52,-18.0921,-50.203
1174,Castelo,32,-20.6033,-41.2031
1175,Castelo do Piauí,22,-5.31869,-41.5499
1176,Castilho,35,-20.8689,-51.4884
1177,Castro,41,-24.7891,-50.0108
1178,Castro Alves,29,-12.7579,-39.4248
1179,Cataguases,31,-21.3924,-42.6896
1180,Catalão,52,-18.1656,-47.944
1181,Catanduva,35,-21.1314,-48.977
1182,Catanduvas,41,-25.2044,-53.1548
1183,Catanduvas,42,-27.069,-51.6602
1184,Catarina,23,-6.12291,-39.8736
1185,Catas Altas,31,-20.0734,-43.4061
1186,Catas Altas da Noruega,31,-20.6901,-43.4939
1187,Catende,26,-8.67509,-35.7024
1188,Catiguá,35,-21.0519,-49.0616
1189,Catingueira,25,-7.12008,-37.6064
1190,Catolândia,29,-12.31,-44.8648
1191,Catolé do Rocha,25,-6.34062,-37.747
1192,Catu,29,-12.3513,-38.3791
1193,Catuípe,43,-28.2554,-54.0132
1194,Catuji,31,-17.3018,-41.5276
1195,Catunda,23,-4.64336,-40.2
1196,Caturaí,52,-16.4447,-49.4936
1197,Caturama,29,-13.3239,-42.2904
1198,Caturité,25,-7.41659,-36.0306
1199,Catuti,31,-15.3616,-42.9627
1200,Caucaia,23,-3.72797,-38.6619
1201,Cavalcante,52,-13.7976,-47.4566
1202,Caxambu,31,-21.9753,-44.9319
1203,Caxambu do Sul,42,-27.1624,-52.8807
1204,Caxias,21,-4.86505,-43.3617
1205,Caxias do Sul,43,-29.1629,-51.1792
1206,Caxingó,22,-3.41904,-41.8955
1207,Ceará-Mirim,24,-5.64323,-35.4247
1208,Cedral,21,-2.00027,-44.5281
1209,Cedral,35,-20.9009,-49.2664
1210,Cedro,23,-6.60034,-39.0609
1211,Cedro,26,-7.71179,-39.2367
1212,Cedro de São João,28,-10.2534,-36.8856
1213,Cedro do Abaeté,31,-19.1458,-45.712
1214,Celso Ramos,42,-27.6327,-51.335
1215,Centenário,43,-27.7615,-51.9984
1216,Centenário,17,-8.96103,-47.3304
1217,Centenário do Sul,41,-22.8188,-51.5973
1218,Central,29,-11.1376,-42.1116
1219,Central de Minas,31,-18.7612,-41.3143
1220,Central do Maranhão,21,-2.19831,-44.8254
1221,Centralina,31,-18.5852,-49.2014
1222,Centro do Guilherme,21,-2.44891,-46.0345
1223,Centro Novo do Maranhão,21,-2.12696,-46.1228
1224,Cerejeiras,11,-13.187,-60.8168
1225,Ceres,52,-15.3061,-49.6
1226,Cerqueira César,35,-23.038,-49.1655
1227,Cerquilho,35,-23.1665,-47.7459
1228,Cerrito,43,-31.8419,-52.8004
1229,Cerro Azul,41,-26.0891,-52.8691
1230,Cerro Branco,43,-29.657,-52.9406
1231,Cerro Corá,24,-6.03503,-36.3503
1232,Cerro Grande,43,-27.6106,-53.1672
1233,Cerro Grande do Sul,43,-30.5905,-51.7418
1234,Cerro Largo,43,-28.1463,-54.7428
1235,Cerro Negro,42,-27.7942,-50.8673
1236,Cesário Lange,35,-23.226,-47.9545
1237,Céu Azul,41,-25.1489,-53.8415
1238,Cezarina,52,-16.9718,-49.7758
1239,Chã de Alegria,26,-8.00679,-35.204
1240,Chã Grande,26,-8.23827,-35.4571
1241,Chã Preta,27,-9.2556,-36.2983
1242,Chácara,31,-21.6733,-43.215
1243,Chalé,31,-20.0453,-41.6897
1244,Chapada,43,-28.0559,-53.0665
1245,Chapada da Natividade,17,-11.6175,-47.7486
1246,Chapada de Areia,17,-10.1419,-49.1403
1247,Chapada do Norte,31,-17.0881,-42.5392
1248,Chapada dos Guimarães,51,-15.4643,-55.7499
1249,Chapada Gaúcha,31,-15.3014,-45.6116
1250,Chapadão do Céu,52,-18.4073,-52.549
1251,Chapadão do Lageado,42,-27.5905,-49.5539
1252,Chapadão do Sul,50,-18.788,-52.6263
1253,Chapadinha,21,-3.73875,-43.3538
1254,Chapecó,42,-27.1004,-52.6152
1255,Charqueada,35,-22.5096,-47.7755
1256,Charqueadas,43,-29.9625,-51.6289
1257,Charrua,43,-27.9493,-52.015
1258,Chaval,23,-3.03571,-41.2435
1259,Chavantes,35,-23.0366,-49.7096
1260,Chaves,15,-0.164154,-49.987
1261,Chiador,31,-21.9996,-43.0617
1262,Chiapetta,43,-27.923,-53.9419
1263,Chopinzinho,41,-25.8515,-52.5173
1264,Choró,23,-4.83906,-39.1344
1265,Chorozinho,23,-4.28873,-38.4986
1266,Chorrochó,29,-8.9695,-39.0979
1267,Chuí,43,-33.6866,-53.4594
1268,Chupinguaia,11,-12.5611,-60.8877
1269,Chuvisca,43,-30.7504,-51.9737
1270,Cianorte,41,-23.6599,-52.6054
1271,Cícero Dantas,29,-10.5897,-38.3794
1272,Cidade Gaúcha,41,-23.3772,-52.9436
1273,Cidade Ocidental,52,-16.0765,-47.9252
1274,Cidelândia,21,-5.17465,-47.7781
1275,Cidreira,43,-30.1604,-50.2337
1276,Cipó,29,-11.1032,-38.5179
1277,Cipotânea,31,-20.9026,-43.3629
1278,Ciríaco,43,-28.3419,-51.8741
1279,Claraval,31,-20.397,-47.2768
1280,Claro dos Poções,31,-17.082,-44.2061
1281,Cláudia,51,-11.5075,-54.8835
1282,Cláudio,31,-20.4437,-44.7673
1283,Clementina,35,-21.5604,-50.4525
1284,Clevelândia,41,-26.4043,-52.3508
1285,Coaraci,29,-14.637,-39.5556
1286,Coari,13,-4.09412,-63.1441
1287,Cocal,22,-3.47279,-41.5546
1288,Cocal de Telha,22,-4.5571,-41.9587
1289,Cocal do Sul,42,-28.5986,-49.3335
1290,Cocal dos Alves,22,-3.62047,-41.4402
1291,Cocalinho,51,-14.3903,-51.0001
1292,Cocalzinho de Goiás,52,-15.7914,-48.7747
1293,Cocos,29,-14.1814,-44.5352
1294,Codajás,13,-3.83053,-62.0658
1295,Codó,21,-4.45562,-43.8924
1296,Coelho Neto,21,-4.25245,-43.0108
1297,Coimbra,31,-20.8535,-42.8008
1298,Coité do Nóia,27,-9.63348,-36.5845
1299,Coivaras,22,-5.09224,-42.208
1300,Colares,15,-0.936423,-48.2803
1301,Colatina,32,-19.5493,-40.6269
1302,Colíder,51,-10.8135,-55.461
1303,Colina,35,-20.7114,-48.5387
1304,Colinas,43,-29.3948,-51.8556
1305,Colinas,21,-6.03199,-44.2543
1306,Colinas do Sul,52,-14.1528,-48.076
1307,Colinas do Tocantins,17,-8.05764,-48.4757
1308,Colméia,17,-8.72463,-48.7638
1309,Colniza,51,-9.46121,-59.2252
1310,Colômbia,35,-20.1768,-48.6865
1311,Colombo,41,-25.2925,-49.2262
1312,Colônia do Gurguéia,22,-8.1837,-43.794
1313,Colônia do Piauí,22,-7.22651,-42.1756
1314,Colônia Leopoldina,27,-8.91806,-35.7214
1315,Colorado,43,-28.5258,-52.9928
1316,Colorado,41,-22.8374,-51.9743
1317,Colorado do Oeste,11,-13.1174,-60.5454
1318,Coluna,31,-18.2311,-42.8352
1319,Combinado,17,-12.7917,-46.5388
1320,Comendador Gomes,31,-19.6973,-49.0789
1321,Comendador Levy Gasparian,33,-22.0404,-43.214
1322,Comercinho,31,-16.2963,-41.7945
1323,Comodoro,51,-13.6614,-59.7848
1324,Conceição,25,-7.55106,-38.5014
1325,Conceição da Aparecida,31,-21.096,-46.2049
1326,Conceição da Barra,32,-18.5883,-39.7362
1327,Conceição da Barra de Minas,31,-21.1316,-44.4729
1328,Conceição da Feira,29,-12.5078,-38.9978
1329,Conceição das Alagoas,31,-19.9172,-48.3839
1330,Conceição das Pedras,31,-22.1576,-45.4562
1331,Conceição de Ipanema,31,-19.9326,-41.6908
1332,Conceição de Macabu,33,-22.0834,-41.8719
1333,Conceição do Almeida,29,-12.7836,-39.1715
1334,Conceição do Araguaia,15,-8.26136,-49.2689
1335,Conceição do Canindé,22,-7.87638,-41.5942
1336,Conceição do Castelo,32,-20.3639,-41.2417
1337,Conceição do Coité,29,-11.56,-39.2808
1338,Conceição do Jacuípe,29,-12.3268,-38.7684
1339,Conceição do Lago-Açu,21,-3.85142,-44.8895
1340,Conceição do Mato Dentro,31,-19.0344,-43.4221
1341,Conceição do Pará,31,-19.7456,-44.8945
1342,Conceição do Rio Verde,31,-21.8778,-45.087
1343,Conceição do Tocantins,17,-12.2209,-47.2951
1344,Conceição dos Ouros,31,-22.4078,-45.7996
1345,Conchal,35,-22.3375,-47.1729
1346,Conchas,35,-23.0154,-48.0134
1347,Concórdia,42,-27.2335,-52.026
1348,Concórdia do Pará,15,-1.99238,-47.9422
1349,Condado,25,-6.89831,-37.606
1350,Condado,26,-7.58787,-35.0999
1351,Conde,25,-7.25746,-34.8999
1352,Conde,29,-11.8179,-37.6131
1353,Condeúba,29,-14.9022,-41.9718
1354,Condor,43,-28.2075,-53.4905
1355,Cônego Marinho,31,-15.2892,-44.4181
1356,Confins,31,-19.6282,-43.9931
1357,Confresa,51,-10.6437,-51.5699
1358,Congo,25,-7.79078,-36.6581
1359,Congonhal,31,-22.1488,-46.043
1360,Congonhas,31,-20.4958,-43.851
1361,Congonhas do Norte,31,-18.8021,-43.6767
1362,Congonhinhas,41,-23.5493,-50.5569
1363,Conquista,31,-19.9312,-47.5492
1364,Conquista D'Oeste,51,-14.5381,-59.5444
1365,Conselheiro Lafaiete,31,-20.6634,-43.7846
1366,Conselheiro Mairinck,41,-23.623,-50.1707
1367,Conselheiro Pena,31,-19.1789,-41.4736
1368,Consolação,31,-22.5493,-45.9255
1369,Constantina,43,-27.732,-52.9938
1370,Contagem,31,-19.9321,-44.0539
1371,Contenda,41,-25.6788,-49.535
1372,Contendas do Sincorá,29,-13.7537,-41.048
1373,Coqueiral,31,-21.1858,-45.4366
1374,Coqueiro Baixo,43,-29.1802,-52.0942
1375,Coqueiro Seco,27,-9.63715,-35.7994
1376,Coqueiros do Sul,43,-28.1194,-52.7842
1377,Coração de Jesus,31,-16.6841,-44.3635
1378,Coração de Maria,29,-12.2333,-38.7487
1379,Corbélia,41,-24.7971,-53.3006
1380,Cordeiro,33,-22.0267,-42.3648
1381,Cordeirópolis,35,-22.4778,-47.4519
1382,Cordeiros,29,-15.0356,-41.9308
1383,Cordilheira Alta,42,-26.9844,-52.6056
1384,Cordisburgo,31,-19.1224,-44.3224
1385,Cordislândia,31,-21.7891,-45.6999
1386,Coreaú,23,-3.5415,-40.6587
1387,Coremas,25,-7.00712,-37.9346
1388,Corguinho,50,-19.8243,-54.8281
1389,Coribe,29,-13.8232,-44.4586
1390,Corinto,31,-18.369,-44.4542
1391,Cornélio Procópio,41,-23.1829,-50.6498
1392,Coroaci,31,-18.6156,-42.2791
1393,Coroados,35,-21.3521,-50.2859
1394,Coroatá,21,-4.13442,-44.1244
1395,Coromandel,31,-18.4734,-47.1933
1396,Coronel Barros,43,-28.3921,-54.0686
1397,Coronel Bicaco,43,-27.7197,-53.7022
1398,Coronel Domingos Soares,41,-26.2277,-52.0356
1399,Coronel Ezequiel,24,-6.3748,-36.2223
1400,Coronel Fabriciano,31,-19.5179,-42.6276
1401,Coronel Freitas,42,-26.9057,-52.7011
1402,Coronel João Pessoa,24,-6.24974,-38.4441
1403,Coronel João Sá,29,-10.2847,-37.9198
1404,Coronel José Dias,22,-8.81397,-42.5232
1405,Coronel Macedo,35,-23.6261,-49.31
1406,Coronel Martins,42,-26.511,-52.6694
1407,Coronel Murta,31,-16.6148,-42.184
1408,Coronel Pacheco,31,-21.5898,-43.256
1409,Coronel Pilar,43,-29.2695,-51.6847
1410,Coronel Sapucaia,50,-23.2724,-55.5278
1411,Coronel Vivida,41,-25.9767,-52.5641
1412,Coronel Xavier Chaves,31,-21.0277,-44.2206
1413,Córrego Danta,31,-19.8198,-45.9032
1414,Córrego do Bom Jesus,31,-22.6269,-46.0241
1415,Córrego do Ouro,52,-16.2918,-50.5503
1416,Córrego Fundo,31,-20.4474,-45.5617
1417,Córrego Novo,31,-19.8361,-42.3988
1418,Correia Pinto,42,-27.5877,-50.3614
1419,Corrente,22,-10.4333,-45.1633
1420,Correntes,26,-9.12117,-36.3244
1421,Correntina,29,-13.3477,-44.6333
1422,Cortês,26,-8.47443,-35.5468
1423,Corumbá,50,-19.0077,-57.651
1424,Corumbá de Goiás,52,-15.9245,-48.8117
1425,Corumbaíba,52,-18.1415,-48.5626
1426,Corumbataí,35,-22.2213,-47.6215
1427,Corumbataí do Sul,41,-24.101,-52.1177
1428,Corumbiara,11,-12.9551,-60.8947
1429,Corupá,42,-26.4246,-49.246
1430,Coruripe,27,-10.1276,-36.1717
1431,Cosmópolis,35,-22.6419,-47.1926
1432,Cosmorama,35,-20.4755,-49.7827
1433,Costa Marques,11,-12.4367,-64.228
1434,Costa Rica,50,-18.5432,-53.1287
1435,Cotegipe,29,-12.0228,-44.2566
1436,Cotia,35,-23.6022,-46.919
1437,Cotiporã,43,-28.9891,-51.6971
1438,Cotriguaçu,51,-9.85656,-58.4192
1439,Couto de Magalhães de Minas,31,-18.0727,-43.4648
1440,Couto Magalhães,17,-8.28411,-49.2473
1441,Coxilha,43,-28.128,-52.3023
1442,Coxim,50,-18.5013,-54.751
1443,Coxixola,25,-7.62365,-36.6064
1444,Craíbas,27,-9.6178,-36.7697
1445,Crateús,23,-5.16768,-40.6536
1446,Crato,23,-7.2153,-39.4103
1447,Cravinhos,35,-21.338,-47.7324
1448,Cravolândia,29,-13.3531,-39.8031
1449,Criciúma,42,-28.6723,-49.3729
1450,Crisólita,31,-17.2381,-40.9184
1451,Crisópolis,29,-11.5059,-38.1515
1452,Crissiumal,43,-27.4999,-54.0994
1453,Cristais,31,-20.8733,-45.5167
1454,Cristais Paulista,35,-20.4036,-47.4209
1455,Cristal,43,-31.0046,-52.0436
1456,Cristal do Sul,43,-27.452,-53.2422
1457,Cristalândia,17,-10.5985,-49.1942
1458,Cristalândia do Piauí,22,-10.6443,-45.1893
1459,Cristália,31,-16.716,-42.8571
1460,Cristalina,52,-16.7676,-47.6131
1461,Cristiano Otoni,31,-20.8324,-43.8166
1462,Cristianópolis,52,-17.1987,-48.7034
1463,Cristina,31,-22.208,-45.2673
1464,Cristinápolis,28,-11.4668,-37.7585
1465,Cristino Castro,22,-8.82273,-44.223
1466,Cristópolis,29,-12.2249,-44.4214
1467,Crixás,52,-14.5412,-49.974
1468,Crixás do Tocantins,17,-11.0994,-48.9152
1469,Croatá,23,-4.40481,-40.9022
1470,Cromínia,52,-17.2883,-49.3798
1471,Crucilândia,31,-20.3923,-44.3334
1472,Cruz,23,-2.91813,-40.176
1473,Cruz Alta,43,-28.645,-53.6048
1474,Cruz das Almas,29,-12.6675,-39.1008
1475,Cruz do Espírito Santo,25,-7.13902,-35.0857
1476,Cruz Machado,41,-26.0166,-51.343
1477,Cruzália,35,-22.7373,-50.7909
1478,Cruzaltense,43,-27.6672,-52.6522
1479,Cruzeiro,35,-22.5728,-44.969
1480,Cruzeiro da Fortaleza,31,-18.944,-46.6669
1481,Cruzeiro do Iguaçu,41,-25.6192,-53.1285
1482,Cruzeiro do Oeste,41,-23.7799,-53.0774
1483,Cruzeiro do Sul,41,-22.9624,-52.1622
1484,Cruzeiro do Sul,43,-29.5148,-51.9928
1485,Cruzeiro do Sul,12,-7.62762,-72.6756
1486,Cruzeta,24,-6.40894,-36.7782
1487,Cruzília,31,-21.84,-44.8067
1488,Cruzmaltina,41,-24.0132,-51.4563
1489,Cubatão,35,-23.8911,-46.424
1490,Cubati,25,-6.86686,-36.3619
1491,Cuiabá,51,-15.601,-56.0974
1492,Cuité,25,-6.47647,-36.1515
1493,Cuité de Mamanguape,25,-6.91292,-35.2502
1494,Cuitegi,25,-6.89058,-35.5215
1495,Cujubim,11,-9.36065,-62.5846
1496,Cumari,52,-18.2644,-48.1511
1497,Cumaru,26,-8.00827,-35.6957
1498,Cumaru do Norte,15,-7.81097,-50.7698
1499,Cumbe,28,-10.352,-37.1846
1500,Cunha,35,-23.0731,-44.9576
1501,Cunha Porã,42,-26.895,-53.1662
1502,Cunhataí,42,-26.9709,-53.0895
1503,Cuparaque,31,-18.9648,-41.0986
1504,Cupira,26,-8.62432,-35.9518
1505,Curaçá,29,-8.98458,-39.8997
1506,Curimatá,22,-10.0326,-44.3002
1507,Curionópolis,15,-6.09965,-49.6068
1508,Curitiba,41,-25.4195,-49.2646
1509,Curitibanos,42,-27.2824,-50.5816
1510,Curiúva,41,-24.0362,-50.4576
1511,Currais,22,-9.01175,-44.4062
1512,Currais Novos,24,-6.25484,-36.5146
1513,Curral de Cima,25,-6.72325,-35.2639
1514,Curral de Dentro,31,-15.9327,-41.8557
1515,Curral Novo do Piauí,22,-7.8313,-40.8957
1516,Curral Velho,25,-7.53075,-38.1962
1517,Curralinho,15,-1.81179,-49.7952
1518,Curralinhos,22,-5.60825,-42.8376
1519,Curuá,15,-1.88775,-55.1168
1520,Curuçá,15,-0.733214,-47.8515
1521,Cururupu,21,-1.81475,-44.8644
1522,Curvelândia,51,-15.6084,-57.9133
1523,Curvelo,31,-18.7527,-44.4303
1524,Custódia,26,-8.08546,-37.6443
1525,Cutias,16,0.970761,-50.8005
1526,Damianópolis,52,-14.5604,-46.178
1527,Damião,25,-6.63161,-35.9101
1528,Damolândia,52,-16.2544,-49.3631
1529,Darcinópolis,17,-6.71591,-47.7597
1530,Dário Meira,29,-14.4229,-39.9031
1531,Datas,31,-18.4478,-43.6591
1532,David Canabarro,43,-28.3849,-51.8482
1533,Davinópolis,21,-5.54637,-47.4217
1534,Davinópolis,52,-18.1501,-47.5568
1535,Delfim Moreira,31,-22.5036,-45.2792
1536,Delfinópolis,31,-20.3468,-46.8456
1537,Delmiro Gouveia,27,-9.38534,-37.9987
1538,Delta,31,-19.9721,-47.7841
1539,Demerval Lobão,22,-5.35875,-42.6776
1540,Denise,51,-14.7324,-57.0583
1541,Deodápolis,50,-22.2763,-54.1682
1542,Deputado Irapuan Pinheiro,23,-5.91485,-39.257
1543,Derrubadas,43,-27.2642,-53.8645
1544,Descalvado,35,-21.9002,-47.6181
1545,Descanso,42,-26.827,-53.5034
1546,Descoberto,31,-21.46,-42.9618
1547,Desterro,25,-7.287,-37.0925
1548,Desterro de Entre Rios,31,-20.665,-44.3334
1549,Desterro do Melo,31,-21.143,-43.5178
1550,Dezesseis de Novembro,43,-28.219,-55.0617
1551,Diadema,35,-23.6813,-46.6205
1552,Diamante,25,-7.41738,-38.2615
1553,Diamante D'Oeste,41,-24.9419,-54.1052
1554,Diamante do Norte,41,-22.655,-52.8617
1555,Diamante do Sul,41,-25.035,-52.6768
1556,Diamantina,31,-18.2413,-43.6031
1557,Diamantino,51,-14.4037,-56.4366
1558,Dianópolis,17,-11.624,-46.8198
1559,Dias d'Ávila,29,-12.6187,-38.2926
1560,Dilermando de Aguiar,43,-29.7054,-54.2122
1561,Diogo de Vasconcelos,31,-20.4879,-43.1953
1562,Dionísio,31,-19.8433,-42.7701
1563,Dionísio Cerqueira,42,-26.2648,-53.6351
1564,Diorama,52,-16.2329,-51.2543
1565,Dirce Reis,35,-20.4642,-50.6073
1566,Dirceu Arcoverde,22,-9.33939,-42.4348
1567,Divina Pastora,28,-10.6782,-37.1506
1568,Divinésia,31,-20.9917,-43.0003
1569,Divino,31,-20.6134,-42.1438
1570,Divino das Laranjeiras,31,-18.7755,-41.4781
1571,Divino de São Lourenço,32,-20.6229,-41.6937
1572,Divinolândia,35,-21.6637,-46.7361
1573,Divinolândia de Minas,31,-18.8004,-42.6103
1574,Divinópolis,31,-20.1446,-44.8912
1575,Divinópolis de Goiás,52,-13.2853,-46.3999
1576,Divinópolis do Tocantins,17,-9.80018,-49.2169
1577,Divisa Alegre,31,-15.7221,-41.3463
1578,Divisa Nova,31,-21.5092,-46.1904
1579,Divisópolis,31,-15.7254,-40.9997
1580,Dobrada,35,-21.5155,-48.3935
1581,Dois Córregos,35,-22.3673,-48.3819
1582,Dois Irmãos,43,-29.5836,-51.0898
1583,Dois Irmãos das Missões,43,-27.6621,-53.5304
1584,Dois Irmãos do Buriti,50,-20.6848,-55.2915
1585,Dois Irmãos do Tocantins,17,-9.25534,-49.0638
1586,Dois Lajeados,43,-28.983,-51.8396
1587,Dois Riachos,27,-9.38465,-37.0965
1588,Dois Vizinhos,41,-25.7407,-53.057
1589,Dolcinópolis,35,-20.124,-50.5149
1590,Dom Aquino,51,-15.8099,-54.9223
1591,Dom Basílio,29,-13.7565,-41.7677
1592,Dom Bosco,31,-16.652,-46.2597
1593,Dom Cavati,31,-19.3735,-42.1121
1594,Dom Eliseu,15,-4.19944,-47.8245
1595,Dom Expedito Lopes,22,-6.95332,-41.6396
1596,Dom Feliciano,43,-30.7004,-52.1026
1597,Dom Inocêncio,22,-9.00516,-41.9697
1598,Dom Joaquim,31,-18.961,-43.2544
1599,Dom Macedo Costa,29,-12.9016,-39.1923
1600,Dom Pedrito,43,-30.9756,-54.6694
1601,Dom Pedro,21,-5.03518,-44.4409
1602,Dom Pedro de Alcântara,43,-29.3639,-49.853
1603,Dom Silvério,31,-20.1627,-42.9627
1604,Dom Viçoso,31,-22.2511,-45.1643
1605,Domingos Martins,32,-20.3603,-40.6594
1606,Domingos Mourão,22,-4.2495,-41.2683
1607,Dona Emma,42,-26.981,-49.7261
1608,Dona Eusébia,31,-21.319,-42.807
1609,Dona Francisca,43,-29.6195,-53.3617
1610,Dona Inês,25,-6.61566,-35.6205
1611,Dores de Campos,31,-21.1139,-44.0207
1612,Dores de Guanhães,31,-19.0516,-42.9254
1613,Dores do Indaiá,31,-19.4628,-45.5927
1614,Dores do Rio Preto,32,-20.6931,-41.8405
1615,Dores do Turvo,31,-20.9785,-43.1834
1616,Doresópolis,31,-20.2868,-45.9007
1617,Dormentes,26,-8.44116,-40.7662
1618,Douradina,50,-22.0405,-54.6158
1619,Douradina,41,-23.3807,-53.2918
1620,Dourado,35,-22.1044,-48.3178
1621,Douradoquara,31,-18.4338,-47.5993
1622,Dourados,50,-22.2231,-54.812
1623,Doutor Camargo,41,-23.5582,-52.2178
1624,Doutor Maurício Cardoso,43,-27.5103,-54.3577
1625,Doutor Pedrinho,42,-26.7174,-49.4795
1626,Doutor Ricardo,43,-29.084,-51.9972
1627,Doutor Severiano,24,-6.08082,-38.3794
1628,Doutor Ulysses,41,-24.5665,-49.4219
1629,Doverlândia,52,-16.7188,-52.3189
1630,Dracena,35,-21.4843,-51.535
1631,Duartina,35,-22.4146,-49.4084
1632,Duas Barras,33,-22.0536,-42.5232
1633,Duas Estradas,25,-6.68499,-35.418
1634,Dueré,17,-11.3416,-49.2716
1635,Dumont,35,-21.2324,-47.9756
1636,Duque Bacelar,21,-4.15002,-42.9477
1637,Duque de Caxias,33,-22.7858,-43.3049
1638,Durandé,31,-20.2058,-41.7977
1639,Echaporã,35,-22.4326,-50.2038
1640,Ecoporanga,32,-18.3702,-40.836
1641,Edealina,52,-17.4239,-49.6644
1642,Edéia,52,-17.3406,-49.9295
1643,Eirunepé,13,-6.65677,-69.8662
1644,Eldorado,50,-23.7868,-54.2838
1645,Eldorado,35,-24.5281,-48.1141
1646,Eldorado do Carajás,15,-6.10389,-49.3553
1647,Eldorado do Sul,43,-30.0847,-51.6187
1648,Elesbão Veloso,22,-6.19947,-42.1355
1649,Elias Fausto,35,-23.0428,-47.3682
1650,Eliseu Martins,22,-8.09629,-43.6705
1651,Elisiário,35,-21.1678,-49.1146
1652,Elísio Medrado,29,-12.9417,-39.5191
1653,Elói Mendes,31,-21.6088,-45.5691
1654,Emas,25,-7.09964,-37.7163
1655,Embaúba,35,-20.9796,-48.8325
1656,Embu das Artes,35,-23.6437,-46.8579
1657,Embu-Guaçu,35,-23.8297,-46.8136
1658,Emilianópolis,35,-21.8314,-51.4832
1659,Encantado,43,-29.2351,-51.8703
1660,Encanto,24,-6.10691,-38.3033
1661,Encruzilhada,29,-15.5302,-40.9124
1662,Encruzilhada do Sul,43,-30.543,-52.5204
1663,Enéas Marques,41,-25.9445,-53.1659
1664,Engenheiro Beltrão,41,-23.797,-52.2659
1665,Engenheiro Caldas,31,-19.2065,-42.0503
1666,Engenheiro Coelho,35,-22.4836,-47.211
1667,Engenheiro Navarro,31,-17.2831,-43.947
1668,Engenheiro Paulo de Frontin,33,-22.5498,-43.6827
1669,Engenho Velho,43,-27.706,-52.9145
1670,Entre Folhas,31,-19.6218,-42.2306
1671,Entre Rios,29,-11.9392,-38.0871
1672,Entre Rios,42,-26.7225,-52.5585
1673,Entre Rios de Minas,31,-20.6706,-44.0654
1674,Entre Rios do Oeste,41,-24.7042,-54.2385
1675,Entre Rios do Sul,43,-27.5298,-52.7347
1676,Entre-Ijuís,43,-28.3686,-54.2686
1677,Envira,13,-7.43789,-70.0281
1678,Epitaciolândia,12,-11.0188,-68.7341
1679,Equador,24,-6.93835,-36.717
1680,Erebango,43,-27.8544,-52.3005
1681,Erechim,43,-27.6364,-52.2697
1682,Ererê,23,-6.02751,-38.3461
1683,Érico Cardoso,29,-13.4215,-42.1352
1684,Ermo,42,-28.9869,-49.643
1685,Ernestina,43,-28.4977,-52.5836
1686,Erval Grande,43,-27.3926,-52.574
1687,Erval Seco,43,-27.5443,-53.5005
1688,Erval Velho,42,-27.2743,-51.443
1689,Ervália,31,-20.8403,-42.6544
1690,Escada,26,-8.35672,-35.2241
1691,Esmeralda,43,-28.0518,-51.1933
1692,Esmeraldas,31,-19.764,-44.3065
1693,Espera Feliz,31,-20.6508,-41.9119
1694,Esperança,25,-7.02278,-35.8597
1695,Esperança do Sul,43,-27.3603,-53.9891
1696,Esperança Nova,41,-23.7238,-53.811
1697,Esperantina,17,-5.36593,-48.5378
1698,Esperantina,22,-3.88863,-42.2324
1699,Esperantinópolis,21,-4.87938,-44.6926
1700,Espigão Alto do Iguaçu,41,-25.4216,-52.8348
1701,Espigão D'Oeste,11,-11.5266,-61.0252
1702,Espinosa,31,-14.9249,-42.809
1703,Espírito Santo,24,-6.33563,-35.3052
1704,Espírito Santo do Dourado,31,-22.0454,-45.9548
1705,Espírito Santo do Pinhal,35,-22.1909,-46.7477
1706,Espírito Santo do Turvo,35,-22.6925,-49.4341
1707,Esplanada,29,-11.7942,-37.9432
1708,Espumoso,43,-28.7286,-52.8461
1709,Estação,43,-27.9135,-52.2635
1710,Estância,28,-11.2659,-37.4484
1711,Estância Velha,43,-29.6535,-51.1843
1712,Esteio,43,-29.852,-51.1841
1713,Estiva,31,-22.4577,-46.0191
1714,Estiva Gerbi,35,-22.2713,-46.9481
1715,Estreito,21,-6.56077,-47.4431
1716,Estrela,43,-29.5002,-51.9495
1717,Estrela d'Oeste,35,-20.2875,-50.4049
1718,Estrela Dalva,31,-21.7412,-42.4574
1719,Estrela de Alagoas,27,-9.39089,-36.7644
1720,Estrela do Indaiá,31,-19.5169,-45.7859
1721,Estrela do Norte,52,-13.8665,-49.0716
1722,Estrela do Norte,35,-22.4859,-51.6632
1723,Estrela do Sul,31,-18.7399,-47.6956
1724,Estrela Velha,43,-29.1713,-53.1639
1725,Euclides da Cunha,29,-10.5078,-39.0153
1726,Euclides da Cunha Paulista,35,-22.5545,-52.5928
1727,Eugênio de Castro,43,-28.5315,-54.1506
1728,Eugenópolis,31,-21.1002,-42.1878
1729,Eunápolis,29,-16.3715,-39.5821
1730,Eusébio,23,-3.8925,-38.4559
1731,Ewbank da Câmara,31,-21.5498,-43.5068
1732,Extrema,31,-22.854,-46.3178
1733,Extremoz,24,-5.70143,-35.3048
1734,Exu,26,-7.50364,-39.7238
1735,Fagundes,25,-7.34454,-35.7931
1736,Fagundes Varela,43,-28.8794,-51.7014
1737,Faina,52,-15.4473,-50.3622
1738,Fama,31,-21.4089,-45.8286
1739,Faria Lemos,31,-20.8097,-42.0213
1740,Farias Brito,23,-6.92146,-39.5651
1741,Faro,15,-2.16805,-56.7405
1742,Farol,41,-24.0958,-52.6217
1743,Farroupilha,43,-29.2227,-51.3419
1744,Fartura,35,-23.3916,-49.5124
1745,Fartura do Piauí,22,-9.48342,-42.7912
1746,Fátima,17,-10.7603,-48.9076
1747,Fátima,29,-10.616,-38.2239
1748,Fátima do Sul,50,-22.3789,-54.5131
1749,Faxinal,41,-24.0077,-51.3227
1750,Faxinal do Soturno,43,-29.5788,-53.4484
1751,Faxinal dos Guedes,42,-26.8451,-52.2596
1752,Faxinalzinho,43,-27.4238,-52.6789
1753,Fazenda Nova,52,-16.1834,-50.7781
1754,Fazenda Rio Grande,41,-25.6624,-49.3073
1755,Fazenda Vilanova,43,-29.5885,-51.8217
1756,Feijó,12,-8.17054,-70.351
1757,Feira da Mata,29,-14.2044,-44.2744
1758,Feira de Santana,29,-12.2664,-38.9663
1759,Feira Grande,27,-9.89859,-36.6815
1760,Feira Nova,26,-7.94704,-35.3801
1761,Feira Nova,28,-10.2616,-37.3147
1762,Feira Nova do Maranhão,21,-6.96508,-46.6786
1763,Felício dos Santos,31,-18.0755,-43.2422
1764,Felipe Guerra,24,-5.59274,-37.6875
1765,Felisburgo,31,-16.6348,-40.7605
1766,Felixlândia,31,-18.7507,-44.9004
1767,Feliz,43,-29.4527,-51.3032
1768,Feliz Deserto,27,-10.2935,-36.3028
1769,Feliz Natal,51,-12.385,-54.9227
1770,Fênix,41,-23.9135,-51.9805
1771,Fernandes Pinheiro,41,-25.4107,-50.5456
1772,Fernandes Tourinho,31,-19.1541,-42.0803
1773,Fernando de Noronha,26,-3.8396,-32.4107
1774,Fernando Falcão,21,-6.16207,-44.8979
1775,Fernando Pedroza,24,-5.69096,-36.5282
1776,Fernando Prestes,35,-21.2661,-48.6874
1777,Fernandópolis,35,-20.2806,-50.2471
1778,Fernão,35,-22.3607,-49.5187
1779,Ferraz de Vasconcelos,35,-23.5411,-46.371
1780,Ferreira Gomes,16,0.857256,-51.1795
1781,Ferreiros,26,-7.44666,-35.2373
1782,Ferros,31,-19.2343,-43.0192
1783,Fervedouro,31,-20.726,-42.279
1784,Figueira,41,-23.8455,-50.4031
1785,Figueirão,50,-18.6782,-53.638
1786,Figueirópolis,17,-12.1312,-49.1748
1787,Figueirópolis D'Oeste,51,-15.4439,-58.7391
1788,Filadélfia,17,-7.33501,-47.4954
1789,Filadélfia,29,-10.7405,-40.1437
1790,Firmino Alves,29,-14.9823,-39.9269
1791,Firminópolis,52,-16.5778,-50.304
1792,Flexeiras,27,-9.27281,-35.7139
1793,Flor da Serra do Sul,41,-26.2523,-53.3092
1794,Flor do Sertão,42,-26.7811,-53.3505
1795,Flora Rica,35,-21.6727,-51.3821
1796,Floraí,41,-23.3178,-52.3029
1797,Florânia,24,-6.12264,-36.8226
1798,Floreal,35,-20.6752,-50.1513
1799,Flores,26,-7.85842,-37.9715
1800,Flores da Cunha,43,-29.0261,-51.1875
1801,Flores de Goiás,52,-14.4451,-47.0417
1802,Flores do Piauí,22,-7.78793,-42.918
1803,Floresta,41,-23.6031,-52.0807
1804,Floresta,26,-8.60307,-38.5687
1805,Floresta Azul,29,-14.8629,-39.6579
1806,Floresta do Araguaia,15,-7.55335,-49.7125
1807,Floresta do Piauí,22,-7.46682,-41.7883
1808,Florestal,31,-19.888,-44.4318
1809,Florestópolis,41,-22.8623,-51.3882
1810,Floriano,22,-6.77182,-43.0241
1811,Floriano Peixoto,43,-27.8614,-52.0838
1812,Florianópolis,42,-27.5945,-48.5477
1813,Flórida,41,-23.0847,-51.9546
1814,Flórida Paulista,35,-21.6127,-51.1724
1815,Florínia,35,-22.868,-50.6814
1816,Fonte Boa,13,-2.52342,-66.0942
1817,Fontoura Xavier,43,-28.9817,-52.3445
1818,Formiga,31,-20.4618,-45.4268
1819,Formigueiro,43,-30.0035,-53.4959
1820,Formosa,52,-15.54,-47.337
1821,Formosa da Serra Negra,21,-6.44017,-46.1916
1822,Formosa do Oeste,41,-24.2951,-53.3114
1823,Formosa do Rio Preto,29,-11.0328,-45.193
1824,Formosa do Sul,42,-26.6453,-52.7946
1825,Formoso,52,-13.6499,-48.8775
1826,Formoso,31,-14.9446,-46.2371
1827,Formoso do Araguaia,17,-11.7976,-49.5316
1828,Forquetinha,43,-29.3828,-52.0981
1829,Forquilha,23,-3.79945,-40.2634
1830,Forquilhinha,42,-28.7454,-49.4785
1831,Fortaleza,23,-3.71664,-38.5423
1832,Fortaleza de Minas,31,-20.8508,-46.712
1833,Fortaleza do Tabocão,17,-9.05611,-48.5206
1834,Fortaleza dos Nogueiras,21,-6.95983,-46.1749
1835,Fortaleza dos Valos,43,-28.7986,-53.2249
1836,Fortim,23,-4.45126,-37.7981
1837,Fortuna,21,-5.72792,-44.1565
1838,Fortuna de Minas,31,-19.5578,-44.4472
1839,Foz do Iguaçu,41,-25.5427,-54.5827
1840,Foz do Jordão,41,-25.7371,-52.1188
1841,Fraiburgo,42,-27.0233,-50.92
1842,Franca,35,-20.5352,-47.4039
1843,Francinópolis,22,-6.39334,-42.2591
1844,Francisco Alves,41,-24.0667,-53.8461
1845,Francisco Ayres,22,-6.62606,-42.6881
1846,Francisco Badaró,31,-16.9883,-42.3568
1847,Francisco Beltrão,41,-26.0817,-53.0535
1848,Francisco Dantas,24,-6.07234,-38.1212
1849,Francisco Dumont,31,-17.3107,-44.2317
1850,Francisco Macedo,22,-7.331,-40.788
1851,Francisco Morato,35,-23.2792,-46.7448
1852,Francisco Sá,31,-16.4827,-43.4896
1853,Francisco Santos,22,-6.99491,-41.1288
1854,Franciscópolis,31,-17.9578,-42.0094
1855,Franco da Rocha,35,-23.3229,-46.729
1856,Frecheirinha,23,-3.75557,-40.818
1857,Frederico Westphalen,43,-27.3586,-53.3958
1858,Frei Gaspar,31,-18.0709,-41.4325
1859,Frei Inocêncio,31,-18.5556,-41.9121
1860,Frei Lagonegro,31,-18.1751,-42.7617
1861,Frei Martinho,25,-6.39759,-36.4526
1862,Frei Miguelinho,26,-7.93918,-35.9113
1863,Frei Paulo,28,-10.5513,-37.5279
1864,Frei Rogério,42,-27.175,-50.8076
1865,Fronteira,31,-20.2748,-49.1984
1866,Fronteira dos Vales,31,-16.8898,-40.923
1867,Fronteiras,22,-7.08173,-40.6146
1868,Fruta de Leite,31,-16.1225,-42.5288
1869,Frutal,31,-20.0259,-48.9355
1870,Frutuoso Gomes,24,-6.15669,-37.8375
1871,Fundão,32,-19.937,-40.4078
1872,Funilândia,31,-19.3661,-44.061
1873,Gabriel Monteiro,35,-21.5294,-50.5573
1874,Gado Bravo,25,-7.58279,-35.7899
1875,Gália,35,-22.2918,-49.5504
1876,Galiléia,31,-19.0005,-41.5387
1877,Galinhos,24,-5.0909,-36.2754
1878,Galvão,42,-26.4549,-52.6875
1879,Gameleira,26,-8.5798,-35.3846
1880,Gameleira de Goiás,52,-16.4854,-48.6454
1881,Gameleiras,31,-15.0829,-43.125
1882,Gandu,29,-13.7441,-39.4747
1883,Garanhuns,26,-8.88243,-36.4966
1884,Gararu,28,-9.9722,-37.0869
1885,Garça,35,-22.2125,-49.6546
1886,Garibaldi,43,-29.259,-51.5352
1887,Garopaba,42,-28.0275,-48.6192
1888,Garrafão do Norte,15,-1.92986,-47.0505
1889,Garruchos,43,-28.1944,-55.6383
1890,Garuva,42,-26.0292,-48.852
1891,Gaspar,42,-26.9336,-48.9534
1892,Gastão Vidigal,35,-20.7948,-50.1912
1893,Gaúcha do Norte,51,-13.2443,-53.0809
1894,Gaurama,43,-27.5856,-52.0915
1895,Gavião,29,-11.4688,-39.7757
1896,Gavião Peixoto,35,-21.8367,-48.4957
1897,Geminiano,22,-7.15476,-41.3409
1898,General Câmara,43,-29.9032,-51.7612
1899,General Carneiro,51,-15.7094,-52.7574
1900,General Carneiro,41,-26.425,-51.3172
1901,General Maynard,28,-10.6835,-36.9838
1902,General Salgado,35,-20.6485,-50.364
1903,General Sampaio,23,-4.04351,-39.454
1904,Gentil,43,-28.4316,-52.0337
1905,Gentio do Ouro,29,-11.4342,-42.5077
1906,Getulina,35,-21.7961,-49.9312
1907,Getúlio Vargas,43,-27.8911,-52.2294
1908,Gilbués,22,-9.83001,-45.3423
1909,Girau do Ponciano,27,-9.88404,-36.8316
1910,Giruá,43,-28.0297,-54.3517
1911,Glaucilândia,31,-16.8481,-43.692
1912,Glicério,35,-21.3812,-50.2123
1913,Glória,29,-9.34382,-38.2544
1914,Glória D'Oeste,51,-15.768,-58.3108
1915,Glória de Dourados,50,-22.4136,-54.2335
1916,Glória do Goitá,26,-8.00568,-35.2904
1917,Glorinha,43,-29.8798,-50.7734
1918,Godofredo Viana,21,-1.40259,-45.7795
1919,Godoy Moreira,41,-24.173,-51.9246
1920,Goiabeira,31,-18.9807,-41.2235
1921,Goianá,31,-21.536,-43.1957
1922,Goiana,26,-7.5606,-34.9959
1923,Goianápolis,52,-16.5098,-49.0234
1924,Goiandira,52,-18.1352,-48.0875
1925,Goianésia,52,-15.3118,-49.1162
1926,Goianésia do Pará,15,-3.84338,-49.0974
1927,Goiânia,52,-16.6864,-49.2643
1928,Goianinha,24,-6.26486,-35.1943
1929,Goianira,52,-16.4947,-49.427
1930,Goianorte,17,-8.77413,-48.9313
1931,Goiás,52,-15.9333,-50.14
1932,Goiatins,17,-7.71478,-47.3252
1933,Goiatuba,52,-18.0105,-49.3658
1934,Goioerê,41,-24.1835,-53.0248
1935,Goioxim,41,-25.1927,-51.9911
1936,Gonçalves,31,-22.6545,-45.8556
1937,Gonçalves Dias,21,-5.1475,-44.3013
1938,Gongogi,29,-14.3195,-39.469
1939,Gonzaga,31,-18.8196,-42.4769
1940,Gouveia,31,-18.4519,-43.7423
1941,Gouvelândia,52,-18.6238,-50.0805
1942,Governador Archer,21,-5.02078,-44.2754
1943,Governador Celso Ramos,42,-27.3172,-48.5576
1944,Governador Dix-Sept Rosado,24,-5.44887,-37.5183
1945,Governador Edison Lobão,21,-5.74973,-47.3646
1946,Governador Eugênio Barros,21,-5.31897,-44.2469
1947,Governador Jorge Teixeira,11,-10.61,-62.7371
1948,Governador Lindenberg,32,-19.1864,-40.4473
1949,Governador Luiz Rocha,21,-5.47835,-44.0774
1950,Governador Mangabeira,29,-12.5994,-39.0412
1951,Governador Newton Bello,21,-3.43245,-45.6619
1952,Governador Nunes Freire,21,-2.12899,-45.8777
1953,Governador Valadares,31,-18.8545,-41.9555
1954,Graça,23,-4.04422,-40.749
1955,Graça Aranha,21,-5.40547,-44.3358
1956,Gracho Cardoso,28,-10.2252,-37.2006
1957,Grajaú,21,-5.81367,-46.1462
1958,Gramado,43,-29.3734,-50.8762
1959,Gramado dos Loureiros,43,-27.4429,-52.9149
1960,Gramado Xavier,43,-29.2706,-52.5795
1961,Grandes Rios,41,-24.1466,-51.5094
1962,Granito,26,-7.70711,-39.615
1963,Granja,23,-3.12788,-40.8372
1964,Granjeiro,23,-6.88134,-39.2144
1965,Grão Mogol,31,-16.5662,-42.8923
1966,Grão Pará,42,-28.1809,-49.2252
1967,Gravatá,26,-8.21118,-35.5675
1968,Gravataí,43,-29.9413,-50.9869
1969,Gravatal,42,-28.3208,-49.0427
1970,Groaíras,23,-3.91787,-40.3852
1971,Grossos,24,-4.98068,-37.1621
1972,Grupiara,31,-18.5003,-47.7318
1973,Guabiju,43,-28.5421,-51.6948
1974,Guabiruba,42,-27.0808,-48.9804
1975,Guaçuí,32,-20.7668,-41.6734
1976,Guadalupe,22,-6.78285,-43.5594
1977,Guaíba,43,-30.1086,-51.3233
1978,Guaiçara,35,-21.6195,-49.8013
1979,Guaimbê,35,-21.9091,-49.8986
1980,Guaíra,35,-20.3196,-48.312
1981,Guaíra,41,-24.085,-54.2573
1982,Guairaçá,41,-22.932,-52.6906
1983,Guaiúba,23,-4.04057,-38.6404
1984,Guajará,13,-7.53797,-72.5907
1985,Guajará-Mirim,11,-10.7889,-65.3296
1986,Guajeru,29,-14.5467,-41.9381
1987,Guamaré,24,-5.10619,-36.3222
1988,Guamiranga,41,-25.1912,-50.8021
1989,Guanambi,29,-14.2231,-42.7799
1990,Guanhães,31,-18.7713,-42.9312
1991,Guapé,31,-20.7631,-45.9152
1992,Guapiaçu,35,-20.7959,-49.2172
1993,Guapiara,35,-24.1892,-48.5295
1994,Guapimirim,33,-22.5347,-42.9895
1995,Guapirama,41,-23.5203,-50.0407
1996,Guapó,52,-16.8297,-49.5345
1997,Guaporé,43,-28.8399,-51.8895
1998,Guaporema,41,-23.3402,-52.7786
1999,Guará,35,-20.4302,-47.8236
2000,Guarabira,25,-6.85064,-35.485
2001,Guaraçaí,35,-21.0292,-51.2119
2002,Guaraci,35,-20.4977,-48.9391
2003,Guaraci,41,-22.9694,-51.6504
2004,Guaraciaba,31,-20.5716,-43.0094
2005,Guaraciaba,42,-26.6042,-53.5243
2006,Guaraciaba do Norte,23,-4.15814,-40.7476
2007,Guaraciama,31,-17.0142,-43.6675
2008,Guaraí,17,-8.83543,-48.5114
2009,Guaraíta,52,-15.6121,-50.0265
2010,Guaramiranga,23,-4.26248,-38.932
2011,Guaramirim,42,-26.4688,-49.0026
2012,Guaranésia,31,-21.3009,-46.7964
2013,Guarani,31,-21.3563,-43.0328
2014,Guarani d'Oeste,35,-20.0746,-50.3411
2015,Guarani das Missões,43,-28.1491,-54.5629
2016,Guarani de Goiás,52,-13.9421,-46.4868
2017,Guaraniaçu,41,-25.0968,-52.8755
2018,Guarantã,35,-21.8942,-49.5914
2019,Guarantã do Norte,51,-9.96218,-54.9121
2020,Guarapari,32,-20.6772,-40.5093
2021,Guarapuava,41,-25.3902,-51.4623
2022,Guaraqueçaba,41,-25.3071,-48.3204
2023,Guarará,31,-21.7304,-43.0334
2024,Guararapes,35,-21.2544,-50.6453
2025,Guararema,35,-23.4112,-46.0369
2026,Guaratinga,29,-16.5833,-39.7847
2027,Guaratinguetá,35,-22.8075,-45.1938
2028,Guaratuba,41,-25.8817,-48.5752
2029,Guarda-Mor,31,-17.7673,-47.0998
2030,Guareí,35,-23.3714,-48.1837
2031,Guariba,35,-21.3594,-48.2316
2032,Guaribas,22,-9.38647,-43.6943
2033,Guarinos,52,-14.7292,-49.7006
2034,Guarujá,35,-23.9888,-46.258
2035,Guarujá do Sul,42,-26.3858,-53.5296
2036,Guarulhos,35,-23.4538,-46.5333
2037,Guatambú,42,-27.1341,-52.7887
2038,Guatapará,35,-21.4944,-48.0356
2039,Guaxupé,31,-21.305,-46.7081
2040,Guia Lopes da Laguna,50,-21.4583,-56.1117
2041,Guidoval,31,-21.155,-42.7887
2042,Guimarães,21,-2.12755,-44.602
2043,Guimarânia,31,-18.8425,-46.7901
2044,Guiratinga,51,-16.346,-53.7575
2045,Guiricema,31,-21.0098,-42.7207
2046,Gurinhatã,31,-19.2143,-49.7876
2047,Gurinhém,25,-7.1233,-35.4222
2048,Gurjão,25,-7.24833,-36.4923
2049,Gurupá,15,-1.41412,-51.6338
2050,Gurupi,17,-11.7279,-49.068
2051,Guzolândia,35,-20.6467,-50.6645
2052,Harmonia,43,-29.5456,-51.4185
2053,Heitoraí,52,-15.719,-49.8268
2054,Heliodora,31,-22.0644,-45.5453
2055,Heliópolis,29,-10.6825,-38.2907
2056,Herculândia,35,-22.0038,-50.3907
2057,Herval,43,-32.024,-53.3944
2058,Herval d'Oeste,42,-27.1903,-51.4917
2059,Herveiras,43,-29.4552,-52.6553
2060,Hidrolândia,52,-16.9626,-49.2265
2061,Hidrolândia,23,-4.40958,-40.4056
2062,Hidrolina,52,-14.7261,-49.4634
2063,Holambra,35,-22.6405,-47.0487
2064,Honório Serpa,41,-26.139,-52.3848
2065,Horizonte,23,-4.1209,-38.4707
2066,Horizontina,43,-27.6282,-54.3053
2067,Hortolândia,35,-22.8529,-47.2143
2068,Hugo Napoleão,22,-5.9886,-42.5598
2069,Hulha Negra,43,-31.4067,-53.8667
2070,Humaitá,43,-27.5691,-53.9695
2071,Humaitá,13,-7.51171,-63.0327
2072,Humberto de Campos,21,-2.59828,-43.4649
2073,Iacanga,35,-21.8896,-49.031
2074,Iaciara,52,-14.1011,-46.6335
2075,Iacri,35,-21.8572,-50.6932
2076,Iaçu,29,-12.7666,-40.2056
2077,Iapu,31,-19.4387,-42.2147
2078,Iaras,35,-22.8682,-49.1634
2079,Iati,26,-9.04559,-36.8498
2080,Ibaiti,41,-23.8478,-50.1932
2081,Ibarama,43,-29.4203,-53.1295
2082,Ibaretama,23,-4.80376,-38.7501
2083,Ibaté,35,-21.9584,-47.9882
2084,Ibateguara,27,-8.97823,-35.9373
2085,Ibatiba,32,-20.2347,-41.5087
2086,Ibema,41,-25.1193,-53.0072
2087,Ibertioga,31,-21.433,-43.9639
2088,Ibiá,31,-19.4749,-46.5474
2089,Ibiaçá,43,-28.0566,-51.8599
2090,Ibiaí,31,-16.8591,-44.9046
2091,Ibiam,42,-27.1847,-51.2352
2092,Ibiapina,23,-3.92403,-40.8911
2093,Ibiara,25,-7.47957,-38.4059
2094,Ibiassucê,29,-14.2711,-42.257
2095,Ibicaraí,29,-14.8579,-39.5914
2096,Ibicaré,42,-27.0881,-51.3681
2097,Ibicoara,29,-13.4059,-41.284
2098,Ibicuí,29,-14.845,-39.9879
2099,Ibicuitinga,23,-4.96999,-38.6362
2100,Ibimirim,26,-8.54026,-37.7032
2101,Ibipeba,29,-11.6438,-42.0195
2102,Ibipitanga,29,-12.8804,-42.4856
2103,Ibiporã,41,-23.2659,-51.0522
2104,Ibiquera,29,-12.6444,-40.9338
2105,Ibirá,35,-21.083,-49.2448
2106,Ibiracatu,31,-15.6605,-44.1667
2107,Ibiraci,31,-20.4611,-47.1222
2108,Ibiraçu,32,-19.8366,-40.3732
2109,Ibiraiaras,43,-28.3741,-51.6377
2110,Ibirajuba,26,-8.57633,-36.1812
2111,Ibirama,42,-27.0547,-49.5193
2112,Ibirapitanga,29,-14.1649,-39.3787
2113,Ibirapuã,29,-17.6832,-40.1129
2114,Ibirapuitã,43,-28.6247,-52.5158
2115,Ibirarema,35,-22.8185,-50.0739
2116,Ibirataia,29,-14.0643,-39.6459
2117,Ibirité,31,-20.0252,-44.0569
2118,Ibirubá,43,-28.6302,-53.0961
2119,Ibitiara,29,-12.6502,-42.2179
2120,Ibitinga,35,-21.7562,-48.8319
2121,Ibitirama,32,-20.5466,-41.6667
2122,Ibititá,29,-11.5414,-41.9748
2123,Ibitiúra de Minas,31,-22.0604,-46.4368
2124,Ibituruna,31,-21.1541,-44.7479
2125,Ibiúna,35,-23.6596,-47.223
2126,Ibotirama,29,-12.1779,-43.2167
2127,Icapuí,23,-4.71206,-37.3531
2128,Içara,42,-28.7132,-49.3087
2129,Icaraí de Minas,31,-16.214,-44.9034
2130,Icaraíma,41,-23.3944,-53.615
2131,Icatu,21,-2.77206,-44.0501
2132,Icém,35,-20.3391,-49.1915
2133,Ichu,29,-11.7431,-39.1905
2134,Icó,23,-6.39627,-38.8554
2135,Iconha,32,-20.7913,-40.8132
2136,Ielmo Marinho,24,-5.82447,-35.55
2137,Iepê,35,-22.6602,-51.0779
2138,Igaci,27,-9.53768,-36.6372
2139,Igaporã,29,-13.774,-42.7155
2140,Igaraçu do Tietê,35,-22.509,-48.5597
2141,Igaracy,25,-7.17184,-38.1478
2142,Igarapava,35,-20.0407,-47.7466
2143,Igarapé,31,-20.0707,-44.2994
2144,Igarapé do Meio,21,-3.65771,-45.2114
2145,Igarapé Grande,21,-4.6625,-44.8558
2146,Igarapé-Açu,15,-1.12539,-47.626
2147,Igarapé-Miri,15,-1.97533,-48.9575
2148,Igarassu,26,-7.82881,-34.9013
2149,Igaratá,35,-23.2037,-46.157
2150,Igaratinga,31,-19.9476,-44.7063
2151,Igrapiúna,29,-13.8295,-39.1361
2152,Igreja Nova,27,-10.1235,-36.6597
2153,Igrejinha,43,-29.5693,-50.7919
2154,Iguaba Grande,33,-22.8495,-42.2299
2155,Iguaí,29,-14.7528,-40.0894
2156,Iguape,35,-24.699,-47.5537
2157,Iguaraçu,41,-23.1949,-51.8256
2158,Iguaracy,26,-7.83222,-37.5082
2159,Iguatama,31,-20.1776,-45.7111
2160,Iguatemi,50,-23.6736,-54.5637
2161,Iguatu,23,-6.36281,-39.2892
2162,Iguatu,41,-24.7153,-53.0827
2163,Ijaci,31,-21.1738,-44.9233
2164,Ijuí,43,-28.388,-53.92
2165,Ilha Comprida,35,-24.7307,-47.5383
2166,Ilha das Flores,28,-10.4425,-36.5479
2167,Ilha de Itamaracá,26,-7.74766,-34.8303
2168,Ilha Grande,22,-2.85774,-41.8186
2169,Ilha Solteira,35,-20.4326,-51.3426
2170,Ilhabela,35,-23.7785,-45.3552
2171,Ilhéus,29,-14.793,-39.046
2172,Ilhota,42,-26.9023,-48.8251
2173,Ilicínea,31,-20.9402,-45.8308
2174,Ilópolis,43,-28.9282,-52.1258
2175,Imaculada,25,-7.3889,-37.5079
2176,Imaruí,42,-28.3339,-48.817
2177,Imbaú,41,-24.448,-50.7533
2178,Imbé,43,-29.9753,-50.1281
2179,Imbé de Minas,31,-19.6017,-41.9695
2180,Imbituba,42,-28.2284,-48.6659
2181,Imbituva,41,-25.2285,-50.5989
2182,Imbuia,42,-27.4908,-49.4218
2183,Imigrante,43,-29.3508,-51.7748
2184,Imperatriz,21,-5.51847,-47.4777
2185,Inácio Martins,41,-25.5704,-51.0769
2186,Inaciolândia,52,-18.4869,-49.9888
2187,Inajá,26,-8.90206,-37.8351
2188,Inajá,41,-22.7509,-52.1995
2189,Inconfidentes,31,-22.3136,-46.3264
2190,Indaiabira,31,-15.4911,-42.2005
2191,Indaial,42,-26.8992,-49.2354
2192,Indaiatuba,35,-23.0816,-47.2101
2193,Independência,43,-27.8354,-54.1886
2194,Independência,23,-5.38789,-40.3085
2195,Indiana,35,-22.1738,-51.2555
2196,Indianópolis,41,-23.4762,-52.6989
2197,Indianópolis,31,-19.0341,-47.9155
2198,Indiaporã,35,-19.979,-50.2909
2199,Indiara,52,-17.1387,-49.9862
2200,Indiaroba,28,-11.5157,-37.515
2201,Indiavaí,51,-15.4921,-58.5802
2202,Ingá,25,-7.28144,-35.605
2203,Ingaí,31,-21.4024,-44.9152
2204,Ingazeira,26,-7.66909,-37.4576
2205,Inhacorá,43,-27.8752,-54.015
2206,Inhambupe,29,-11.781,-38.355
2207,Inhangapi,15,-1.4349,-47.9114
2208,Inhapi,27,-9.22594,-37.7509
2209,Inhapim,31,-19.5476,-42.1147
2210,Inhaúma,31,-19.4898,-44.3934
2211,Inhuma,22,-6.665,-41.7041
2212,Inhumas,52,-16.3611,-49.5001
2213,Inimutaba,31,-18.7271,-44.3584
2214,Inocência,50,-19.7277,-51.9281
2215,Inúbia Paulista,35,-21.7695,-50.9633
2216,Iomerê,42,-27.0019,-51.2442
2217,Ipaba,31,-19.4158,-42.4139
2218,Ipameri,52,-17.7215,-48.1581
2219,Ipanema,31,-19.7992,-41.7164
2220,Ipanguaçu,24,-5.48984,-36.8501
2221,Ipaporanga,23,-4.89764,-40.7537
2222,Ipatinga,31,-19.4703,-42.5476
2223,Ipaumirim,23,-6.78265,-38.7179
2224,Ipaussu,35,-23.0575,-49.6279
2225,Ipê,43,-28.8171,-51.2859
2226,Ipecaetá,29,-12.3028,-39.3069
2227,Iperó,35,-23.3513,-47.6927
2228,Ipeúna,35,-22.4355,-47.7151
2229,Ipiaçu,31,-18.6927,-49.9436
2230,Ipiaú,29,-14.1226,-39.7353
2231,Ipiguá,35,-20.6557,-49.3842
2232,Ipirá,29,-12.1561,-39.7359
2233,Ipira,42,-27.4038,-51.7758
2234,Ipiranga,41,-25.0238,-50.5794
2235,Ipiranga de Goiás,52,-15.1689,-49.6695
2236,Ipiranga do Norte,51,-12.2408,-56.1531
2237,Ipiranga do Piauí,22,-6.82421,-41.7381
2238,Ipiranga do Sul,43,-27.9404,-52.4271
2239,Ipixuna,13,-7.04791,-71.6934
2240,Ipixuna do Pará,15,-2.55992,-47.5059
2241,Ipojuca,26,-8.39303,-35.0609
2242,Iporã,41,-24.0083,-53.706
2243,Iporá,52,-16.4398,-51.118
2244,Iporã do Oeste,42,-26.9854,-53.5355
2245,Iporanga,35,-24.5847,-48.5971
2246,Ipu,23,-4.31748,-40.7059
2247,Ipuã,35,-20.4438,-48.0129
2248,Ipuaçu,42,-26.635,-52.4556
2249,Ipubi,26,-7.64505,-40.1476
2250,Ipueira,24,-6.80596,-37.2045
2251,Ipueiras,17,-11.2329,-48.46
2252,Ipueiras,23,-4.53802,-40.7118
2253,Ipuiúna,31,-22.1013,-46.1915
2254,Ipumirim,42,-27.0772,-52.1289
2255,Ipupiara,29,-11.8219,-42.6179
2256,Iracema,14,2.18305,-61.0415
2257,Iracema,23,-5.8124,-38.2919
2258,Iracema do Oeste,41,-24.4262,-53.3528
2259,Iracemápolis,35,-22.5832,-47.523
2260,Iraceminha,42,-26.8215,-53.2767
2261,Iraí,43,-27.1951,-53.2543
2262,Iraí de Minas,31,-18.9819,-47.461
2263,Irajuba,29,-13.2563,-40.0848
2264,Iramaia,29,-13.2902,-40.9595
2265,Iranduba,13,-3.27479,-60.19
2266,Irani,42,-27.0287,-51.9012
2267,Irapuã,35,-21.2768,-49.4164
2268,Irapuru,35,-21.5684,-51.3472
2269,Iraquara,29,-12.2429,-41.6155
2270,Irará,29,-12.0504,-38.7631
2271,Irati,41,-25.4697,-50.6493
2272,Irati,42,-26.6539,-52.8955
2273,Irauçuba,23,-3.74737,-39.7843
2274,Irecê,29,-11.3033,-41.8535
2275,Iretama,41,-24.4253,-52.1012
2276,Irineópolis,42,-26.242,-50.7957
2277,Irituia,15,-1.76984,-47.446
2278,Irupi,32,-20.3501,-41.6444
2279,Isaías Coelho,22,-7.73597,-41.6735
2280,Israelândia,52,-16.3144,-50.9087
2281,Itá,42,-27.2907,-52.3212
2282,Itaara,43,-29.6013,-53.7725
2283,Itabaiana,25,-7.33167,-35.3317
2284,Itabaiana,28,-10.6826,-37.4273
2285,Itabaianinha,28,-11.2693,-37.7875
2286,Itabela,29,-16.5732,-39.5593
2287,Itaberá,35,-23.8638,-49.14
2288,Itaberaba,29,-12.5242,-40.3059
2289,Itaberaí,52,-16.0206,-49.806
2290,Itabi,28,-10.1248,-37.1056
2291,Itabira,31,-19.6239,-43.2312
2292,Itabirinha,31,-18.5712,-41.234
2293,Itabirito,31,-20.2501,-43.8038
2294,Itaboraí,33,-22.7565,-42.8639
2295,Itabuna,29,-14.7876,-39.2781
2296,Itacajá,17,-8.39293,-47.7726
2297,Itacambira,31,-17.0625,-43.3069
2298,Itacarambi,31,-15.089,-44.095
2299,Itacaré,29,-14.2784,-38.9959
2300,Itacoatiara,13,-3.13861,-58.4449
2301,Itacuruba,26,-8.82231,-38.6975
2302,Itacurubi,43,-28.7913,-55.2447
2303,Itaeté,29,-12.9831,-40.9677
2304,Itagi,29,-14.1615,-40.0131
2305,Itagibá,29,-14.2782,-39.8449
2306,Itagimirim,29,-16.0819,-39.6133
2307,Itaguaçu,32,-19.8018,-40.8601
2308,Itaguaçu da Bahia,29,-11.0147,-42.3997
2309,Itaguaí,33,-22.8636,-43.7798
2310,Itaguajé,41,-22.6183,-51.9674
2311,Itaguara,31,-20.3947,-44.4875
2312,Itaguari,52,-15.918,-49.6071
2313,Itaguaru,52,-15.7565,-49.6354
2314,Itaguatins,17,-5.77267,-47.4864
2315,Itaí,35,-23.4213,-49.092
2316,Itaíba,26,-8.94569,-37.4173
2317,Itaiçaba,23,-4.67146,-37.833
2318,Itainópolis,22,-7.44336,-41.4687
2319,Itaiópolis,42,-26.339,-49.9092
2320,Itaipava do Grajaú,21,-5.14252,-45.7877
2321,Itaipé,31,-17.4014,-41.6697
2322,Itaipulândia,41,-25.1366,-54.3001
2323,Itaitinga,23,-3.96577,-38.5298
2324,Itaituba,15,-4.2667,-55.9926
2325,Itajá,24,-5.63894,-36.8712
2326,Itajá,52,-19.0673,-51.5495
2327,Itajaí,42,-26.9101,-48.6705
2328,Itajobi,35,-21.3123,-49.0629
2329,Itaju,35,-21.9857,-48.8116
2330,Itaju do Colônia,29,-15.1366,-39.7283
2331,Itajubá,31,-22.4225,-45.4598
2332,Itajuípe,29,-14.6788,-39.3698
2333,Italva,33,-21.4296,-41.7014
2334,Itamaraju,29,-17.0378,-39.5386
2335,Itamarandiba,31,-17.8552,-42.8561
2336,Itamarati,13,-6.43852,-68.2437
2337,Itamarati de Minas,31,-21.4179,-42.813
2338,Itamari,29,-13.7782,-39.683
2339,Itambacuri,31,-18.035,-41.683
2340,Itambaracá,41,-23.0181,-50.4097
2341,Itambé,41,-23.6601,-51.9912
2342,Itambé,26,-7.41403,-35.0963
2343,Itambé,29,-15.2429,-40.63
2344,Itambé do Mato Dentro,31,-19.4158,-43.3182
2345,Itamogi,31,-21.0758,-47.046
2346,Itamonte,31,-22.2859,-44.868
2347,Itanagra,29,-12.2614,-38.0436
2348,Itanhaém,35,-24.1736,-46.788
2349,Itanhandu,31,-22.2942,-44.9382
2350,Itanhangá,51,-12.2259,-56.6463
2351,Itanhém,29,-17.1642,-40.3321
2352,Itanhomi,31,-19.1736,-41.863
2353,Itaobim,31,-16.5571,-41.5017
2354,Itaóca,35,-24.6393,-48.8413
2355,Itaocara,33,-21.6748,-42.0758
2356,Itapaci,52,-14.9522,-49.5511
2357,Itapagipe,31,-19.9062,-49.3781
2358,Itapajé,23,-3.68314,-39.5855
2359,Itaparica,29,-12.8932,-38.68
2360,Itapé,29,-14.8876,-39.4239
2361,Itapebi,29,-15.9551,-39.5329
2362,Itapecerica,31,-20.4704,-45.127
2363,Itapecerica da Serra,35,-23.7161,-46.8572
2364,Itapecuru Mirim,21,-3.40202,-44.3508
2365,Itapejara d'Oeste,41,-25.9619,-52.8152
2366,Itapema,42,-27.0861,-48.616
2367,Itapemirim,32,-21.0095,-40.8307
2368,Itaperuçu,41,-25.2193,-49.3454
2369,Itaperuna,33,-21.1997,-41.8799
2370,Itapetim,26,-7.37178,-37.1863
2371,Itapetinga,29,-15.2475,-40.2482
2372,Itapetininga,35,-23.5886,-48.0483
2373,Itapeva,35,-23.9788,-48.8764
2374,Itapeva,31,-22.7665,-46.2241
2375,Itapevi,35,-23.5488,-46.9327
2376,Itapicuru,29,-11.3088,-38.2262
2377,Itapipoca,23,-3.49933,-39.5836
2378,Itapira,35,-22.4357,-46.8224
2379,Itapiranga,13,-2.74081,-58.0293
2380,Itapiranga,42,-27.1659,-53.7166
2381,Itapirapuã,52,-15.8205,-50.6094
2382,Itapirapuã Paulista,35,-24.572,-49.1661
2383,Itapiratins,17,-8.37982,-48.1072
2384,Itapissuma,26,-7.76798,-34.8971
2385,Itapitanga,29,-14.4139,-39.5657
2386,Itapiúna,23,-4.55516,-38.9281
2387,Itapoá,42,-26.1158,-48.6182
2388,Itápolis,35,-21.5942,-48.8149
2389,Itaporã,50,-22.08,-54.7934
2390,Itaporã do Tocantins,17,-8.57172,-48.6895
2391,Itaporanga,35,-23.7043,-49.4819
2392,Itaporanga,25,-7.30202,-38.1504
2393,Itaporanga d'Ajuda,28,-10.99,-37.3078
2394,Itapororoca,25,-6.82374,-35.2406
2395,Itapuã do Oeste,11,-9.19687,-63.1809
2396,Itapuca,43,-28.7768,-52.1693
2397,Itapuí,35,-22.2324,-48.7197
2398,Itapura,35,-20.6419,-51.5063
2399,Itapuranga,52,-15.5606,-49.949
2400,Itaquaquecetuba,35,-23.4835,-46.3457
2401,Itaquara,29,-13.4459,-39.9378
2402,Itaqui,43,-29.1311,-56.5515
2403,Itaquiraí,50,-23.4779,-54.187
2404,Itaquitinga,26,-7.66373,-35.1002
2405,Itarana,32,-19.875,-40.8753
2406,Itarantim,29,-15.6528,-40.065
2407,Itararé,35,-24.1085,-49.3352
2408,Itarema,23,-2.9248,-39.9167
2409,Itariri,35,-24.2834,-47.1736
2410,Itarumã,52,-18.7646,-51.3485
2411,Itati,43,-29.4974,-50.1016
2412,Itatiaia,33,-22.4897,-44.5675
2413,Itatiaiuçu,31,-20.1983,-44.4211
2414,Itatiba,35,-23.0035,-46.8464
2415,Itatiba do Sul,43,-27.3846,-52.4538
2416,Itatim,29,-12.7099,-39.6952
2417,Itatinga,35,-23.1047,-48.6157
2418,Itatira,23,-4.52608,-39.6202
2419,Itatuba,25,-7.38115,-35.638
2420,Itaú,24,-5.8363,-37.9912
2421,Itaú de Minas,31,-20.7375,-46.7525
2422,Itaúba,51,-11.0614,-55.2766
2423,Itaubal,16,0.602185,-50.6996
2424,Itauçu,52,-16.2029,-49.6109
2425,Itaueira,22,-7.59989,-43.0249
2426,Itaúna,31,-20.0818,-44.5801
2427,Itaúna do Sul,41,-22.7289,-52.8874
2428,Itaverava,31,-20.6769,-43.6141
2429,Itinga,31,-16.61,-41.7672
2430,Itinga do Maranhão,21,-4.45293,-47.5235
2431,Itiquira,51,-17.2147,-54.1422
2432,Itirapina,35,-22.2562,-47.8166
2433,Itirapuã,35,-20.6416,-47.2194
2434,Itiruçu,29,-13.529,-40.1472
2435,Itiúba,29,-10.6948,-39.8446
2436,Itobi,35,-21.7309,-46.9743
2437,Itororó,29,-15.11,-40.0684
2438,Itu,35,-23.2544,-47.2927
2439,Ituaçu,29,-13.8107,-41.3003
2440,Ituberá,29,-13.7249,-39.1481
2441,Itueta,31,-19.3999,-41.1746
2442,Ituiutaba,31,-18.9772,-49.4639
2443,Itumbiara,52,-18.4093,-49.2158
2444,Itumirim,31,-21.3171,-44.8724
2445,Itupeva,35,-23.1526,-47.0593
2446,Itupiranga,15,-5.13272,-49.3358
2447,Ituporanga,42,-27.4101,-49.5963
2448,Iturama,31,-19.7276,-50.1966
2449,Itutinga,31,-21.3,-44.6567
2450,Ituverava,35,-20.3355,-47.7902
2451,Iuiú,29,-14.4054,-43.5595
2452,Iúna,32,-20.3531,-41.5334
2453,Ivaí,41,-25.0067,-50.857
2454,Ivaiporã,41,-24.2485,-51.6754
2455,Ivaté,41,-23.4072,-53.3687
2456,Ivatuba,41,-23.6187,-52.2203
2457,Ivinhema,50,-22.3046,-53.8184
2458,Ivolândia,52,-16.5995,-50.7921
2459,Ivorá,43,-29.5232,-53.5842
2460,Ivoti,43,-29.5995,-51.1533
2461,Jaboatão dos Guararapes,26,-8.11298,-35.015
2462,Jaborá,42,-27.1782,-51.7279
2463,Jaborandi,29,-13.6071,-44.4255
2464,Jaborandi,35,-20.6884,-48.4112
2465,Jaboti,41,-23.7435,-50.0729
2466,Jaboticaba,43,-27.6347,-53.2762
2467,Jaboticabal,35,-21.252,-48.3252
2468,Jaboticatubas,31,-19.5119,-43.7373
2469,Jaçanã,24,-6.41856,-36.2031
2470,Jacaraci,29,-14.8541,-42.4329
2471,Jacaraú,25,-6.61453,-35.289
2472,Jacaré dos Homens,27,-9.63545,-37.2076
2473,Jacareacanga,15,-6.21469,-57.7544
2474,Jacareí,35,-23.2983,-45.9658
2475,Jacarezinho,41,-23.1591,-49.9739
2476,Jaci,35,-20.8805,-49.5797
2477,Jaciara,51,-15.9548,-54.9733
2478,Jacinto,31,-16.1428,-40.295
2479,Jacinto Machado,42,-28.9961,-49.7623
2480,Jacobina,29,-11.1812,-40.5117
2481,Jacobina do Piauí,22,-7.93063,-41.2075
2482,Jacuí,31,-21.0137,-46.7359
2483,Jacuípe,27,-8.83951,-35.4591
2484,Jacuizinho,43,-29.0401,-53.0657
2485,Jacundá,15,-4.44617,-49.1153
2486,Jacupiranga,35,-24.6963,-48.0064
2487,Jacutinga,43,-27.7291,-52.5372
2488,Jacutinga,31,-22.286,-46.6166
2489,Jaguapitã,41,-23.1104,-51.5342
2490,Jaguaquara,29,-13.5248,-39.964
2491,Jaguaraçu,31,-19.647,-42.7498
2492,Jaguarão,43,-32.5604,-53.377
2493,Jaguarari,29,-10.2569,-40.1999
2494,Jaguaré,32,-18.907,-40.0759
2495,Jaguaretama,23,-5.6051,-38.7639
2496,Jaguari,43,-29.4936,-54.703
2497,Jaguariaíva,41,-24.2439,-49.7066
2498,Jaguaribara,23,-5.67765,-38.5359
2499,Jaguaribe,23,-5.90213,-38.6227
2500,Jaguaripe,29,-13.1109,-38.8939
2501,Jaguariúna,35,-22.7037,-46.9851
2502,Jaguaruana,23,-4.83151,-37.781
2503,Jaguaruna,42,-28.6146,-49.0296
2504,Jaíba,31,-15.3432,-43.6688
2505,Jaicós,22,-7.36229,-41.1371
2506,Jales,35,-20.2672,-50.5494
2507,Jambeiro,35,-23.2522,-45.6942
2508,Jampruca,31,-18.461,-41.809
2509,Janaúba,31,-15.8022,-43.3132
2510,Jandaia,52,-17.0481,-50.1453
2511,Jandaia do Sul,41,-23.6011,-51.6448
2512,Jandaíra,24,-5.35211,-36.1278
2513,Jandaíra,29,-11.5616,-37.7853
2514,Jandira,35,-23.5275,-46.9023
2515,Janduís,24,-6.01474,-37.4048
2516,Jangada,51,-15.235,-56.4917
2517,Janiópolis,41,-24.1401,-52.7784
2518,Januária,31,-15.4802,-44.3639
2519,Januário Cicco (Boa Saúde),24,-6.16566,-35.6219
2520,Japaraíba,31,-20.1442,-45.5015
2521,Japaratinga,27,-9.08746,-35.2634
2522,Japaratuba,28,-10.5849,-36.9418
2523,Japeri,33,-22.6435,-43.6602
2524,Japi,24,-6.46544,-35.9346
2525,Japira,41,-23.8142,-50.1422
2526,Japoatã,28,-10.3477,-36.8045
2527,Japonvar,31,-15.9891,-44.2758
2528,Japorã,50,-23.8903,-54.4059
2529,Japurá,41,-23.4693,-52.5557
2530,Japurá,13,-1.88237,-66.9291
2531,Jaqueira,26,-8.72618,-35.7942
2532,Jaquirana,43,-28.8811,-50.3637
2533,Jaraguá,52,-15.7529,-49.3344
2534,Jaraguá do Sul,42,-26.4851,-49.0713
2535,Jaraguari,50,-20.1386,-54.3996
2536,Jaramataia,27,-9.66224,-37.0046
2537,Jardim,23,-7.57599,-39.2826
2538,Jardim,50,-21.4799,-56.1489
2539,Jardim Alegre,41,-24.1809,-51.6902
2540,Jardim de Angicos,24,-5.64999,-35.9713
2541,Jardim de Piranhas,24,-6.37665,-37.3496
2542,Jardim do Mulato,22,-6.099,-42.63
2543,Jardim do Seridó,24,-6.58047,-36.7736
2544,Jardim Olinda,41,-22.5523,-52.0503
2545,Jardinópolis,35,-21.0176,-47.7606
2546,Jardinópolis,42,-26.7191,-52.8625
2547,Jari,43,-29.2922,-54.2237
2548,Jarinu,35,-23.1039,-46.728
2549,Jaru,11,-10.4318,-62.4788
2550,Jataí,52,-17.8784,-51.7204
2551,Jataizinho,41,-23.2578,-50.9777
2552,Jataúba,26,-7.97668,-36.4943
2553,Jateí,50,-22.4806,-54.3079
2554,Jati,23,-7.6797,-39.0029
2555,Jatobá,21,-5.82282,-44.2153
2556,Jatobá,26,-9.17476,-38.2607
2557,Jatobá do Piauí,22,-4.77025,-41.817
2558,Jaú,35,-22.2936,-48.5592
2559,Jaú do Tocantins,17,-12.6509,-48.589
2560,Jaupaci,52,-16.1773,-50.9508
2561,Jauru,51,-15.3342,-58.8723
2562,Jeceaba,31,-20.5339,-43.9894
2563,Jenipapo de Minas,31,-17.0831,-42.2589
2564,Jenipapo dos Vieiras,21,-5.36237,-45.6356
2565,Jequeri,31,-20.4542,-42.6651
2566,Jequiá da Praia,27,-10.0133,-36.0142
2567,Jequié,29,-13.8509,-40.0877
2568,Jequitaí,31,-17.229,-44.4376
2569,Jequitibá,31,-19.2345,-44.0304
2570,Jequitinhonha,31,-16.4375,-41.0117
2571,Jeremoabo,29,-10.0685,-38.3471
2572,Jericó,25,-6.54577,-37.8036
2573,Jeriquara,35,-20.3116,-47.5918
2574,Jerônimo Monteiro,32,-20.7994,-41.3948
2575,Jerumenha,22,-7.09128,-43.5033
2576,Jesuânia,31,-21.9887,-45.2911
2577,Jesuítas,41,-24.3839,-53.3849
2578,Jesúpolis,52,-15.9484,-49.3739
2579,Ji-Paraná,11,-10.8777,-61.9322
2580,Jijoca de Jericoacoara,23,-2.79331,-40.5127
2581,Jiquiriçá,29,-13.2621,-39.5737
2582,Jitaúna,29,-14.0131,-39.8969
2583,Joaçaba,42,-27.1721,-51.5108
2584,Joaíma,31,-16.6522,-41.0229
2585,Joanésia,31,-19.1729,-42.6775
2586,Joanópolis,35,-22.927,-46.2741
2587,João Alfredo,26,-7.86565,-35.5787
2588,João Câmara,24,-5.54094,-35.8122
2589,João Costa,22,-8.50736,-42.4264
2590,João Dias,24,-6.27215,-37.7885
2591,João Dourado,29,-11.3486,-41.6548
2592,João Lisboa,21,-5.44363,-47.4064
2593,João Monlevade,31,-19.8126,-43.1735
2594,João Neiva,32,-19.7577,-40.386
2595,João Pessoa,25,-7.11509,-34.8641
2596,João Pinheiro,31,-17.7398,-46.1715
2597,João Ramalho,35,-22.2473,-50.7694
2598,Joaquim Felício,31,-17.758,-44.1643
2599,Joaquim Gomes,27,-9.1328,-35.7474
2600,Joaquim Nabuco,26,-8.62281,-35.5288
2601,Joaquim Pires,22,-3.50164,-42.1865
2602,Joaquim Távora,41,-23.4987,-49.909
2603,Joca Claudino,25,-6.48362,-38.4764
2604,Joca Marques,22,-3.4804,-42.4255
2605,Jóia,43,-28.6435,-54.1141
2606,Joinville,42,-26.3045,-48.8487
2607,Jordânia,31,-15.9009,-40.1841
2608,Jordão,12,-9.1908,-71.9503
2609,José Boiteux,42,-26.9566,-49.6286
2610,José Bonifácio,35,-21.0551,-49.6892
2611,José da Penha,24,-6.31095,-38.2823
2612,José de Freitas,22,-4.75146,-42.5746
2613,José Gonçalves de Minas,31,-16.9053,-42.6014
2614,José Raydan,31,-18.2195,-42.4946
2615,Joselândia,21,-4.98611,-44.6958
2616,Josenópolis,31,-16.5417,-42.5151
2617,Joviânia,52,-17.802,-49.6197
2618,Juara,51,-11.2639,-57.5244
2619,Juarez Távora,25,-7.1713,-35.5686
2620,Juarina,17,-8.11951,-49.0643
2621,Juatuba,31,-19.9448,-44.3451
2622,Juazeirinho,25,-7.06092,-36.5793
2623,Juazeiro,29,-9.41622,-40.5033
2624,Juazeiro do Norte,23,-7.19621,-39.3076
2625,Juazeiro do Piauí,22,-5.17459,-41.6976
2626,Jucás,23,-6.51523,-39.5187
2627,Jucati,26,-8.70195,-36.4871
2628,Jucuruçu,29,-16.8488,-40.1641
2629,Jucurutu,24,-6.0306,-37.009
2630,Juína,51,-11.3728,-58.7483
2631,Juiz de Fora,31,-21.7595,-43.3398
2632,Júlio Borges,22,-10.3225,-44.2381
2633,Júlio de Castilhos,43,-29.2299,-53.6772
2634,Júlio Mesquita,35,-22.0112,-49.7873
2635,Jumirim,35,-23.0884,-47.7868
2636,Junco do Maranhão,21,-1.83888,-46.09
2637,Junco do Seridó,25,-6.99269,-36.7166
2638,Jundiá,24,-6.26866,-35.3495
2639,Jundiá,27,-8.93297,-35.5669
2640,Jundiaí,35,-23.1852,-46.8974
2641,Jundiaí do Sul,41,-23.4357,-50.2496
2642,Junqueiro,27,-9.90696,-36.4803
2643,Junqueirópolis,35,-21.5103,-51.4342
2644,Jupi,26,-8.70904,-36.4126
2645,Jupiá,42,-26.395,-52.7298
2646,Juquiá,35,-24.3101,-47.6426
2647,Juquitiba,35,-23.9244,-47.0653
2648,Juramento,31,-16.8473,-43.5865
2649,Juranda,41,-24.4209,-52.8413
2650,Jurema,26,-8.70714,-36.1347
2651,Jurema,22,-9.21992,-43.1337
2652,Juripiranga,25,-7.36176,-35.2321
2653,Juru,25,-7.52983,-37.815
2654,Juruá,13,-3.48438,-66.0718
2655,Juruaia,31,-21.2493,-46.5735
2656,Juruena,51,-10.3178,-58.3592
2657,Juruti,15,-2.16347,-56.0889
2658,Juscimeira,51,-16.0633,-54.8859
2659,Jussara,29,-11.0431,-41.9702
2660,Jussara,52,-15.8659,-50.8668
2661,Jussara,41,-23.6219,-52.4693
2662,Jussari,29,-15.192,-39.491
2663,Jussiape,29,-13.5155,-41.5882
2664,Jutaí,13,-2.75814,-66.7595
2665,Juti,50,-22.8596,-54.6061
2666,Juvenília,31,-14.2662,-44.1597
2667,Kaloré,41,-23.8188,-51.6687
2668,Lábrea,13,-7.26413,-64.7948
2669,Lacerdópolis,42,-27.2579,-51.5577
2670,Ladainha,31,-17.6279,-41.7488
2671,Ladário,50,-19.0089,-57.5973
2672,Lafaiete Coutinho,29,-13.6541,-40.2119
2673,Lagamar,31,-18.1759,-46.8063
2674,Lagarto,28,-10.9136,-37.6689
2675,Lages,42,-27.815,-50.3259
2676,Lago da Pedra,21,-4.56974,-45.1319
2677,Lago do Junco,21,-4.609,-45.049
2678,Lago dos Rodrigues,21,-4.61173,-44.9798
2679,Lago Verde,21,-3.94661,-44.826
2680,Lagoa,25,-6.58572,-37.9127
2681,Lagoa Alegre,22,-4.51539,-42.6309
2682,Lagoa Bonita do Sul,43,-29.4939,-53.017
2683,Lagoa d'Anta,24,-6.39493,-35.5949
2684,Lagoa da Canoa,27,-9.83291,-36.7413
2685,Lagoa da Confusão,17,-10.7906,-49.6199
2686,Lagoa da Prata,31,-20.0237,-45.5401
2687,Lagoa de Dentro,25,-6.67213,-35.3706
2688,Lagoa de Itaenga,26,-7.93005,-35.2874
2689,Lagoa de Pedras,24,-6.15082,-35.4299
2690,Lagoa de São Francisco,22,-4.38505,-41.5969
2691,Lagoa de Velhos,24,-6.0119,-35.8729
2692,Lagoa do Barro do Piauí,22,-8.47673,-41.5342
